Year Completed,Number of Purposes,Floors,Rank,Height,Name,Material,City,City ID,Country,Country ID,Longitude,Latitude,ID
2014,1,94,4,541.2999878,One World Trade Center,composite,New York City,1641,US,163,-74.01335144,40.71311188,98
1974,1,108,8,442.1400146,Willis Tower,steel,Chicago,1539,US,163,-87.63594818,41.8788681,169
2015,1,85,11,425.5,432 Park Avenue,concrete,New York City,1641,US,163,-73.97186279,40.76155853,13227
2009,2,98,12,423.2200012,Trump International Hotel & Tower,concrete,Chicago,1539,US,163,-87.6264267,41.88887024,203
1931,1,102,18,381,Empire State Building,steel,New York City,1641,US,163,-73.98560333,40.74842072,261
2009,1,55,20,365.7999878,Bank of America Tower,composite,New York City,1641,US,163,-73.98435211,40.75537872,291
1996,1,0,22,350.2200012,Stratosphere Tower,concrete,Las Vegas,1610,US,163,-115.1554337,36.1473999,9401
1973,1,83,23,346.2600098,Aon Center,steel,Chicago,1539,US,163,-87.62145233,41.88515854,339
1969,2,100,24,343.6900024,John Hancock Center,steel,Chicago,1539,US,163,-87.62306213,41.8987999,345
1962,1,0,27,329,WITI TV Tower,steel,Shorewood,2217,US,163,-87.89720917,43.0906105,17720
1930,1,77,32,318.8999939,Chrysler Building,steel,New York City,1641,US,163,-73.97534943,40.7516098,422
2007,1,52,33,318.769989,New York Times Tower,steel,New York City,1641,US,163,-73.99004364,40.75608826,423
1992,1,55,35,311.7999878,Bank of America Plaza,composite,Atlanta,1509,US,163,-84.38601685,33.7707901,429
1990,1,73,38,310.2900085,U.S. Bank Tower,steel,Los Angeles,1611,US,163,-118.2543564,34.05104065,445
1989,1,60,40,306.9400024,The Franklin - North Tower,composite,Chicago,1539,US,163,-87.63475037,41.88034821,465
2014,2,75,41,306.0700073,One57,steel/concrete,New York City,1641,US,163,-73.97907257,40.76544189,570
1982,1,75,42,305.4100037,JPMorgan Chase Tower,composite,Houston,1593,US,163,-95.36390686,29.76041985,472
1990,1,64,45,303.2799988,Two Prudential Plaza,concrete,Chicago,1539,US,163,-87.62258148,41.88536835,489
1983,1,71,46,302.3699951,Wells Fargo Plaza,steel,Houston,1593,US,163,-95.36826324,29.75844955,493
2014,1,65,47,297.730011,4 World Trade Center,composite,New York City,1641,US,163,-74.01217651,40.71031952,545
2008,1,57,48,296.730011,Comcast Center,composite,Philadelphia,1657,US,163,-75.16847992,39.95473862,546
1990,1,65,49,292.9200134,311 South Wacker Drive,concrete,Chicago,1539,US,163,-87.63555908,41.87739182,563
1932,1,67,50,290.1700134,70 Pine,steel,New York City,1641,US,163,-74.00766754,40.70634079,18405
1991,1,57,52,288.6499939,Key Tower,composite,Cleveland,1543,US,163,-81.69390869,41.50099945,585
1987,1,61,53,288.0400085,One Liberty Place,steel,Philadelphia,1657,US,163,-75.1681366,39.95256042,593
1984,1,76,55,284.3800049,Columbia Center,composite,Seattle,1680,US,163,-122.3305969,47.60464096,611
1930,1,71,56,282.5499878,The Trump Building,steel,New York City,1641,US,163,-74.00980377,40.70692062,619
1985,1,72,57,280.7200012,Bank of America Plaza 2,composite,Dallas,1554,US,163,-96.80393982,32.78004074,630
1977,1,63,58,278.8999939,Citigroup Center,steel,New York City,1641,US,163,-73.97038269,40.75857162,648
1982,1,64,61,274.6300049,Williams Tower,steel,Houston,1593,US,163,-95.46121216,29.73719025,661
1986,1,56,64,270.0599976,Renaissance Tower,steel,Dallas,1554,US,163,-96.80191803,32.78126144,683
1992,1,60,66,265.480011,Bank of America Corporate Center,concrete,Charlotte,1544,US,163,-80.84208679,35.22729111,711
2011,1,76,67,265.1799927,Eight Spruce Street,concrete,New York City,1641,US,163,-74.00566864,40.71086121,699
1989,4,66,68,265,900 North Michigan Avenue,concrete/steel,Chicago,1539,US,163,-87.62471008,41.8996582,708
1992,1,60,70,264.25,SunTrust Plaza,concrete,Atlanta,1509,US,163,-84.38646698,33.76269913,724
2001,1,72,71,262.4400024,Trump World Tower,concrete,New York City,1641,US,163,-73.96766663,40.75252151,735
1976,3,74,72,261.8800049,Water Tower Place,concrete,Chicago,1539,US,163,-87.62284088,41.89796829,739
2009,2,86,73,261.75,Aqua,concrete,Chicago,1539,US,163,-87.61991882,41.88647842,886
1974,1,62,74,261.519989,Aon Center 2,steel,Los Angeles,1611,US,163,-118.2568665,34.04922867,744
1972,1,48,75,260,Transamerica Pyramid,composite,San Francisco,1683,US,163,-122.4027328,37.79523849,772
1933,1,70,76,259.0799866,Comcast Building,steel,New York City,1641,US,163,-73.97939301,40.75899124,775
1969,1,60,77,259.0799866,Chase Tower,steel,Chicago,1539,US,163,-87.63024139,41.88161087,779
1990,2,58,78,258.4700012,Two Liberty Place,steel,Philadelphia,1657,US,163,-75.16742706,39.95169067,783
2000,2,68,79,257.3500061,Park Tower,concrete,Chicago,1539,US,163,-87.62513733,41.89702988,793
2012,1,52,80,257.230011,Devon Energy Center,concrete,Oklahoma City,1645,US,163,-97.51763153,35.46686172,623
1970,1,64,83,256.3399963,U.S. Steel Tower,steel,Pittsburgh,1661,US,163,-79.99463654,40.44129181,801
1987,1,50,88,249.9400024,One Atlantic Center,composite,Atlanta,1509,US,163,-84.38733673,33.78701019,874
2010,1,73,89,249.3300018,The Legacy at Millennium Park,concrete,Chicago,1539,US,163,-87.62564087,41.88135147,887
1987,2,75,90,248.1100006,CitySpire,concrete,New York City,1641,US,163,-73.97969818,40.7641983,895
1961,2,60,91,247.8099976,28 Liberty,steel,New York City,1641,US,163,-74.00904846,40.70782089,900
1999,1,48,92,246.5399933,4 Times Square,steel,New York City,1641,US,163,-73.9858017,40.75593948,907
1963,1,59,93,246.2799988,MetLife Building,steel,New York City,1641,US,163,-73.97666931,40.75342178,909
2004,2,54,94,245.6199951,Bloomberg Tower,concrete/steel,New York City,1641,US,163,-73.96798706,40.76174164,917
1990,1,54,96,241.4100037,Mellon Bank Center,composite,Philadelphia,1657,US,163,-75.16954803,39.95357895,971
1913,1,57,97,241.3999939,Woolworth Building,steel,New York City,1641,US,163,-74.0082016,40.7123909,969
1973,1,55,98,241.3800049,IDS Tower,composite,Minneapolis,1627,US,163,-93.27263641,44.9759903,968
1976,1,62,100,240.7899933,200 Clarendon,steel,Boston,1524,US,163,-71.07510376,42.34931946,974
2003,3,64,101,240.4100037,Four Seasons Hotel & Tower,concrete,Miami,1632,US,163,-80.19177246,25.75902939,977
1987,1,60,102,239.8800049,Comerica Bank Tower,composite,Dallas,1554,US,163,-96.79631805,32.78163147,984
2010,1,48,103,239.6999969,Duke Energy Center,concrete/steel,Charlotte,1544,US,163,-80.84860229,35.22389984,1077
2009,1,60,104,239.1199951,300 North LaSalle,composite,Chicago,1539,US,163,-87.63317108,41.88822174,1009
2004,1,42,105,238.0500031,30 Hudson Street,steel,Jersey City,1605,US,163,-74.03375244,40.7129097,1025
1983,1,56,107,237.75,Bank of America Center,steel,Houston,1593,US,163,-95.36659241,29.76074982,1026
1969,1,52,108,237.4400024,555 California Street,steel,San Francisco,1683,US,163,-122.403801,37.792099,1027
1989,1,47,109,237.1399994,1 Worldwide Plaza,steel,New York City,1641,US,163,-73.98695374,40.76222992,1030
1992,1,56,111,236.5299988,Capella Tower,composite,Minneapolis,1627,US,163,-93.26864624,44.9763298,1031
1988,1,56,112,236.3200073,Wells Fargo Center,composite,Minneapolis,1627,US,163,-93.27091217,44.97692871,1033
1988,1,55,113,235.3099976,1201 Third Avenue Tower,steel,Seattle,1680,US,163,-122.3360825,47.60726929,1045
1992,1,50,114,234.6999969,191 Peachtree Tower,composite,Atlanta,1509,US,163,-84.38668823,33.75894165,1062
1981,1,57,115,233.6499939,Three First National Plaza,composite,Chicago,1539,US,163,-87.63056946,41.88238144,1071
1983,1,55,116,232.8000031,Southeast Financial Center,composite,Miami,1632,US,163,-80.18742371,25.77223969,1075
1987,1,53,117,232.2599945,Heritage Plaza,steel,Houston,1593,US,163,-95.37078094,29.75880051,1079
1991,1,60,118,230.7400055,Carnegie Hall Tower,concrete,New York City,1641,US,163,-73.97962952,40.76480865,1090
1992,1,50,120,230.4799957,Chicago Title & Trust Center,composite,Chicago,1539,US,163,-87.63054657,41.8848114,1096
1980,1,55,121,230.3999939,Enterprise Plaza,composite,Houston,1593,US,163,-95.36897278,29.75781059,1093
2001,1,47,122,230.25,383 Madison Avenue,steel,New York City,1641,US,163,-73.9766922,40.75553894,1109
2013,1,67,123,229.6199951,Courtyard & Residence Inn Manhattan/Central Park,concrete,New York City,1641,US,163,-73.98271179,40.76435852,9786
1985,1,51,124,229.2100067,AXA Center,steel,New York City,1641,US,163,-73.98184204,40.76171875,1118
1972,1,57,127,228.6000061,One Penn Plaza,steel,New York City,1641,US,163,-73.99236298,40.75128174,1123
1972,1,54,128,228.6000061,1251 Avenue of the Americas,steel,New York City,1641,US,163,-73.98156738,40.75997925,1126
1964,1,52,129,228.6000061,Prudential Tower,steel,Boston,1524,US,163,-71.08264923,42.347229,1127
1992,1,52,129,228.6000061,Two California Plaza,steel,Los Angeles,1611,US,163,-118.2515335,34.05144119,1128
2004,3,55,131,228.3200073,Time Warner Center North Tower,concrete/steel,New York City,1641,US,163,-73.98310852,40.76893997,1124
2004,2,55,131,228.3200073,Time Warner Center South Tower,concrete/steel,New York City,1641,US,163,-73.98313904,40.76831818,1125
1991,1,52,133,228.3000031,Gas Company Tower,steel,Los Angeles,1611,US,163,-118.2531891,34.05007935,1131
2010,1,44,134,228.3000031,Goldman Sachs Headquarters,steel,New York City,1641,US,163,-74.01437378,40.71479034,1133
1989,1,55,135,227.0800018,60 Wall Street,steel,New York City,1641,US,163,-74.00849915,40.70611954,1151
1972,1,54,136,227.0800018,One Astor Plaza,composite,New York City,1641,US,163,-73.98645782,40.75790024,1152
2007,1,35,137,227.0800018,RSA Battle House Tower,steel/concrete,Mobile,1635,US,163,-88.03991699,30.69330025,1155
2010,1,54,138,226.7200012,Blue Cross-Blue Shield Tower,composite,Chicago,1539,US,163,-87.61979675,41.88478851,1160
2006,1,49,139,226.5,7 World Trade Center,steel/concrete,New York City,1641,US,163,-74.01213837,40.71332169,1117
1972,1,54,140,226.4700012,One Liberty Plaza,steel,New York City,1641,US,163,-74.0109024,40.70985031,1161
1931,1,57,141,225.8600006,Twenty Exchange,steel,New York City,1641,US,163,-74.0096817,40.70544052,1169
1996,1,53,142,225.8600006,Centerpoint Energy Plaza,steel,Houston,1593,US,163,-95.36795044,29.75712967,1173
1989,1,56,143,225.5599976,Two Union Square,composite,Seattle,1680,US,163,-122.3319473,47.6104393,1176
1991,1,55,144,225.25,Three Logan,steel,Philadelphia,1657,US,163,-75.16905975,39.95534897,8966
1986,1,51,145,225.1999969,Three World Financial Center,steel,New York City,1641,US,163,-74.01502228,40.71353912,1177
1975,1,55,148,224.0299988,Bank of America Plaza,steel,Los Angeles,1611,US,163,-118.2532196,34.0536499,1200
1984,1,55,150,223.1199951,1600 Smith Street,steel,Houston,1593,US,163,-95.37270355,29.75440025,1208
1986,2,63,152,222.8999939,Olympia Centre,concrete,Chicago,1539,US,163,-87.62315369,41.8964119,1228
1977,1,70,154,221.4900055,Detroit Marriott at the Renaissance Center,concrete,Detroit,1559,US,163,-83.03968811,42.32899094,1225
2009,1,62,155,221.3399963,One Museum Park,concrete,Chicago,1539,US,163,-87.62133026,41.86714172,1203
2004,1,47,156,221.2899933,Times Square Tower,steel,New York City,1641,US,163,-73.98692322,40.75558853,1226
1983,1,54,157,221,One Mellon Center,steel,Pittsburgh,1661,US,163,-79.9960022,40.43978882,1231
1991,1,53,158,221,777 Tower,steel,Los Angeles,1611,US,163,-118.2613983,34.04850006,1233
1982,1,52,159,221,Fulbright Tower,composite,Houston,1593,US,163,-95.36154938,29.75551033,1234
1976,1,73,160,220.3699951,Westin Peachtree Plaza,concrete,Atlanta,1509,US,163,-84.38857269,33.75936127,1241
1983,1,54,161,220.3699951,Wells Fargo Tower,steel,Los Angeles,1611,US,163,-118.2517319,34.05295944,1242
1990,1,57,162,220.0700073,Seattle Municipal Tower,steel,Seattle,1680,US,163,-122.3294067,47.60523987,1248
1986,1,62,163,219.4600067,Fountain Place,steel,Dallas,1554,US,163,-96.80255127,32.78479004,8940
2012,2,53,164,218.9199982,Revel Resort and Casino,concrete,Atlantic City,1501,US,163,-74.4148407,39.36246872,1322
1989,1,52,165,218.5399933,Figueroa at Wilshire,steel,Los Angeles,1611,US,163,-118.2594299,34.05073166,1279
1985,2,68,166,218.2400055,Metropolitan Tower,concrete,New York City,1641,US,163,-73.97931671,40.76475143,1282
1984,1,56,169,217.6300049,Republic Plaza,steel,Denver,1556,US,163,-104.9885101,39.74354935,1307
1970,1,50,170,217.6300049,One Shell Plaza,concrete,Houston,1593,US,163,-95.36763763,29.75914955,1308
1982,1,52,171,216.1100006,1801 California Plaza,steel,Denver,1556,US,163,-104.9897766,39.74766159,1328
1928,1,52,173,215.8000031,Terminal Tower,steel,Cleveland,1543,US,163,-81.69412994,41.49824905,1338
1960,1,52,174,215.5,JPMorgan Chase Tower,steel,New York City,1641,US,163,-73.97557068,40.75579834,1341
1968,1,50,177,214.8899994,General Motors Building,steel,New York City,1641,US,163,-73.97228241,40.76359177,1351
1990,1,49,179,213.6699982,Chase Tower,steel,Indianapolis,1600,US,163,-86.15712738,39.76958084,903
1909,1,50,180,213.3600006,Metropolitan Life Tower,steel,New York City,1641,US,163,-73.98738098,40.7412796,1383
1971,1,52,181,213.0599976,City National Tower,steel,Los Angeles,1611,US,163,-118.2577133,34.05078125,1395
1971,1,52,181,213.0599976,Paul Hastings Tower,steel,Los Angeles,1611,US,163,-118.2570114,34.05157089,1396
1983,1,50,183,212.75,Wells Fargo Center,composite,Denver,1556,US,163,-104.9852295,39.74357986,1401
1931,1,59,184,212.4499969,500 Fifth Avenue,steel,New York City,1641,US,163,-73.98104858,40.75389099,1403
1972,1,51,185,212.4499969,One Shell Square,composite,New Orleans,1636,US,163,-90.07080841,29.95025063,1405
1972,1,52,186,211.8399963,AMA Plaza,composite,Chicago,1539,US,163,-87.62757874,41.8886795,18349
1986,2,48,187,211.8399963,345 California Center,steel,San Francisco,1683,US,163,-122.4004517,37.79262924,1420
1992,1,48,189,210.9199982,Americas Tower,steel,New York City,1641,US,163,-73.98287964,40.75714111,1426
1983,1,50,191,210.5200043,1400 Smith Street,steel,Houston,1593,US,163,-95.37200928,29.7554493,1429
1974,1,49,192,210,Solow Building,steel,New York City,1641,US,163,-73.97489166,40.76382065,1465
1967,1,52,193,209.7100067,HSBC Bank Building,steel,New York City,1641,US,163,-74.01010895,40.7085495,1476
1972,1,53,194,209.3999939,55 Water Street,steel,New York City,1641,US,163,-74.00940704,40.70294189,1480
1963,1,50,195,209.3999939,277 Park Avenue,steel,New York City,1641,US,163,-73.97457123,40.75540924,1481
2009,2,60,197,209,Waldorf Astoria Chicago,concrete,Chicago,1539,US,163,-87.62748718,41.89978027,1484
1980,1,50,199,208.7899933,Three Allen Center,steel,Houston,1593,US,163,-95.37207031,29.75731087,1496
2003,2,52,200,208.4900055,Random House Tower,steel,New York City,1641,US,163,-73.98256683,40.76530838,1500
2010,1,56,201,208.1499939,The Austonian,concrete,Austin,1510,US,163,-97.74465942,30.26482964,1501
1993,1,52,202,207.8800049,Four Seasons Hotel,concrete,New York City,1641,US,163,-73.97129059,40.76232147,1517
2005,1,51,203,207.6399994,111 South Wacker,composite,Chicago,1539,US,163,-87.6364975,41.88024139,1528
1990,1,50,204,207.2700043,181 West Madison,composite,Chicago,1539,US,163,-87.63342285,41.88161087,1529
2005,1,48,205,207.1000061,Hyatt Center,composite,Chicago,1539,US,163,-87.63629913,41.88090134,1546
2009,2,63,206,207,Marquis,concrete,Miami,1632,US,163,-80.18991852,25.78519058,1533
1978,1,47,207,206.8000031,LyondellBassell Tower,composite,Houston,1593,US,163,-95.36231995,29.75610924,1549
1980,1,47,208,206.3500061,AT&T Building,concrete,Atlanta,1509,US,163,-84.38652039,33.77273178,1552
2015,1,61,209,206,Sky,concrete,New York City,1641,US,163,-73.99848175,40.76124954,2024
1972,1,51,210,205.4400024,McGraw-Hill Building,steel,New York City,1641,US,163,-73.98213196,40.75934982,1568
1983,2,57,212,205.1300049,One Magnificent Mile,concrete,Chicago,1539,US,163,-87.62454224,41.90042877,1572
1930,1,53,213,205.1300049,One Grand Central Place,steel,New York City,1641,US,163,-73.97875977,40.75207138,1576
1990,1,50,214,205.1300049,Citigroup Building,steel,New York City,1641,US,163,-73.94403076,40.74700165,1651
2007,1,56,215,205.0599976,Barclay Tower,concrete,New York City,1641,US,163,-74.00920105,40.71220016,1574
2007,1,64,216,204.8999939,340 on the Park,concrete,Chicago,1539,US,163,-87.61869049,41.88476944,1583
1970,1,48,217,204.2200012,Paramount Plaza,steel,New York City,1641,US,163,-73.98451996,40.76203156,1587
1992,1,49,218,203.6100006,United Building,composite,Chicago,1539,US,163,-87.63053131,41.88652039,1597
1983,1,52,219,203.5800018,33 South 6th Street,concrete,Minneapolis,1627,US,163,-93.27297974,44.97822952,1595
1975,1,52,220,203.3000031,BOK Tower,steel,Tulsa,1706,US,163,-95.9906311,36.15523148,1598
2010,2,54,221,203.2799988,Ritz-Carlton/Marriott Marquis Los Angeles,steel,Los Angeles,1611,US,163,-118.2670135,34.04518127,1734
2008,2,48,222,202.6900024,Sovereign,concrete,Atlanta,1509,US,163,-84.36846924,33.84711075,1610
2011,1,40,223,202.6900024,Great American Tower at Queen City Square,composite,Cincinnati,1550,US,163,-84.50692749,39.09972,1636
1982,2,58,224,202.3899994,Trump Tower,concrete,New York City,1641,US,163,-73.97396088,40.7623291,1611
2002,1,47,226,200.8099976,Hearst Tower,steel/concrete,Charlotte,1544,US,163,-80.84068298,35.22756958,1647
1985,1,46,227,200.5599976,200 Public Square,steel,Cleveland,1543,US,163,-81.69158173,41.50011826,1654
2006,1,41,228,200.1600037,1180 Peachtree,concrete,Atlanta,1509,US,163,-84.3837204,33.78686905,1658
2010,1,47,235,199.5,Wells Fargo Tower,steel/concrete,Miami,1632,US,163,-80.18952942,25.77131081,1782
1932,1,50,236,199.3399963,One Wall Street,steel,New York City,1641,US,163,-74.0116272,40.70738983,1727
2009,1,58,237,199.1699982,Silver Towers East,concrete,New York City,1641,US,163,-73.99886322,40.76068878,1731
2009,1,58,237,199.1699982,Silver Towers West,concrete,New York City,1641,US,163,-73.99949646,40.76073074,1732
1986,1,51,239,199.0399933,599 Lexington Avenue,steel,New York City,1641,US,163,-73.97074127,40.75778961,1736
2001,1,50,240,198.5800018,UBS Tower,composite,Chicago,1539,US,163,-87.63626862,41.88230896,1742
1990,1,53,242,198.1199951,712 5th Avenue,steel,New York City,1641,US,163,-73.97502136,40.76221848,1750
2008,1,63,243,198,900 Biscayne Bay,concrete,Miami,1632,US,163,-80.19010925,25.78331947,1311
1929,1,56,248,197.8000031,Chanin Building,steel,New York City,1641,US,163,-73.97664642,40.75117874,1766
1967,1,47,249,197.5099945,245 Park Avenue,steel,New York City,1641,US,163,-73.97489166,40.75463867,1778
1965,1,31,250,197.5099945,Richard J. Daley Center,steel,Chicago,1539,US,163,-87.63024902,41.88417816,1780
1983,1,37,251,197.3200073,550 Madison Avenue,steel,New York City,1641,US,163,-73.97341156,40.76139832,1783
2004,1,56,252,197.1499939,55 East Erie,concrete,Chicago,1539,US,163,-87.62577057,41.89384079,1781
2009,1,58,254,196.6000061,Millennium Tower,concrete,San Francisco,1683,US,163,-122.3960724,37.79037094,1801
1986,1,44,255,196.6000061,Two World Financial Center,steel,New York City,1641,US,163,-74.01554871,40.71242905,1804
1968,1,70,256,196.4499969,Lake Point Tower,concrete,Chicago,1539,US,163,-87.61215973,41.8915596,1799
2007,1,43,257,196.4400024,1095 Avenue of the Americas,steel,New York City,1641,US,163,-73.98477936,40.75460815,1936
2001,1,58,258,196.2899933,River East Center,concrete,Chicago,1539,US,163,-87.61795807,41.89144135,1809
1931,1,50,259,196,570 Lexington Avenue,steel,New York City,1641,US,163,-73.97250366,40.757061,1828
2015,1,46,260,196,Mansions at Acqualina,concrete,Sunny Isles Beach,1686,US,163,-80.12055206,25.94004059,15110
2007,1,53,263,195.6799927,The Palazzo,composite,Las Vegas,1610,US,163,-115.1679001,36.12393188,1827
2003,1,57,264,195.3800049,Grand Plaza Apartments,concrete,Chicago,1539,US,163,-87.62854004,41.89196014,1829
1969,1,50,266,195.0700073,1 New York Plaza,steel,New York City,1641,US,163,-74.0120697,40.70204163,1840
2010,2,45,267,194.75,Four Seasons Hotel & Private Residences,concrete,Denver,1556,US,163,-104.9980621,39.74639893,1860
2009,1,45,268,194.5700073,155 North Wacker,composite,Chicago,1539,US,163,-87.63648987,41.88471985,1862
2011,2,63,269,194.5500031,1 MiMA Tower,concrete,New York City,1641,US,163,-73.99465942,40.75891876,2029
1989,1,46,272,193.5500031,Leo Burnett Building,composite,Chicago,1539,US,163,-87.62908936,41.88645935,1873
1984,1,40,273,193.5500031,One PPG Place,steel,Pittsburgh,1661,US,163,-80.00364685,40.44002151,1874
2002,1,45,274,193.25,One First National Center,composite,Omaha,1646,US,163,-95.93756866,41.25901031,1875
1969,1,44,275,193.25,345 Park Avenue,steel,New York City,1641,US,163,-73.97238159,40.75777817,1876
2011,1,46,276,192.7400055,BG Group Place,concrete,Houston,1593,US,163,-95.36338043,29.75790024,1927
1929,1,48,278,192.6000061,Mercantile Building,steel,New York City,1641,US,163,-73.98127747,40.75156021,1892
2010,2,59,279,192.5800018,Langham Place,concrete,New York City,1641,US,163,-73.98374939,40.75006866,1891
2005,1,57,280,192.3800049,The Heritage at Millennium Park,concrete,Chicago,1539,US,163,-87.62560272,41.88415909,1897
2008,1,52,282,192.3300018,Encore,concrete,Las Vegas,1610,US,163,-115.1648636,36.12950134,1901
2009,1,55,283,192.2799988,Mint at Riverfront,concrete,Miami,1632,US,163,-80.19515228,25.76948929,1899
2010,2,57,284,192.1100006,W New York Downtown Hotel & Residences,concrete,New York City,1641,US,163,-74.01364136,40.70909119,1898
1972,1,50,286,192.0299988,Grace Plaza,steel,New York City,1641,US,163,-73.98269653,40.75463867,1919
1969,1,50,286,192.0299988,Safeco Plaza,steel,Seattle,1680,US,163,-122.3337631,47.60622025,1920
1966,1,44,288,192.0299988,Home Insurance Plaza,steel,New York City,1641,US,163,-74.00814056,40.70872116,1932
2008,2,52,289,192,Infinity at Brickell,concrete,Miami,1632,US,163,-80.19428253,25.76107025,1916
1982,1,49,290,191.7200012,101 Park Avenue,concrete,New York City,1641,US,163,-73.97785187,40.75086975,1937
1965,1,52,291,191.4199982,Elm Place,steel,Dallas,1554,US,163,-96.80075836,32.78144836,1944
1971,1,45,292,191.4199982,888 7th Avenue,steel,New York City,1641,US,163,-73.98084259,40.76530838,1945
1969,1,50,293,190.5,1345 Avenue of the Americas,steel,New York City,1641,US,163,-73.97898865,40.76303101,1961
1979,1,48,294,190.5,Citigroup Center,steel,Los Angeles,1611,US,163,-118.2550583,34.05160904,1962
1987,1,47,295,190.5,Miami Tower,concrete,Miami,1632,US,163,-80.19145966,25.77227974,1963
1931,1,47,295,190.5,Waldorf Astoria New York,steel,New York City,1641,US,163,-73.97338104,40.75656891,1964
2009,1,44,297,189.9900055,353 North Clark,composite,Chicago,1539,US,163,-87.63020325,41.88888931,1975
1991,1,54,298,189.8899994,Trump Palace,concrete,New York City,1641,US,163,-73.96177673,40.76742935,2260
1988,1,42,299,189.8899994,One Kansas City Place,concrete,Kansas City,1633,US,163,-94.58377075,39.09970093,1895
2008,2,64,300,189.5899963,Trump International Hotel & Tower 1,concrete,Las Vegas,1610,US,163,-115.1727829,36.12963104,2003
1968,1,0,301,189.5899963,Tower of the Americas,concrete,San Antonio,1678,US,163,-98.48355103,29.41902924,9604
2010,1,50,302,189.2799988,One Madison Park,concrete,New York City,1641,US,163,-73.98805237,40.74065018,2026
1976,2,51,303,189,Olympic Tower,concrete/steel,New York City,1641,US,163,-73.97615051,40.7591095,2010
1967,1,42,304,189,611 Place,steel,Los Angeles,1611,US,163,-118.2553482,34.04916,2013
2003,1,55,305,188.3399963,425 5th Avenue,concrete,New York City,1641,US,163,-73.98233032,40.75104141,2025
1928,1,33,307,187.5,New York Life Building,steel,New York City,1641,US,163,-73.9855423,40.74277115,2060
2007,1,57,308,187.4499969,Marina Blue,concrete,Miami,1632,US,163,-80.18971252,25.7823391,2051
2007,1,58,309,187.4100037,The Epic,concrete,New York City,1641,US,163,-73.99008942,40.7487793,2050
1985,1,44,310,187.3999939,Tower 49&reg;,steel/concrete,New York City,1641,US,163,-73.97704315,40.75727081,2069
2010,2,46,311,187.1499939,Eventi,concrete,New York City,1641,US,163,-73.99015045,40.74708176,2066
2005,2,45,312,187.1499939,Wynn Las Vegas,concrete,Las Vegas,1610,US,163,-115.1655579,36.12675858,2074
2014,1,58,313,186.7700043,OneEleven,concrete,Chicago,1539,US,163,-87.63143921,41.88652039,14291
2007,1,56,315,185.9299927,Plaza on Brickell Tower I,concrete,Miami,1632,US,163,-80.19010925,25.76505089,2091
2003,1,58,316,185.9100037,Millennium Centre,concrete,Chicago,1539,US,163,-87.62927246,41.89300919,2088
1964,1,46,317,185.6300049,Credit Lyonnais Building,steel,New York City,1641,US,163,-73.97988892,40.76169968,2115
1991,2,49,318,185.3200073,Chicago Place,concrete,Chicago,1539,US,163,-87.62503815,41.89530945,2117
1989,1,44,320,184.8200073,City Centre,steel,Seattle,1680,US,163,-122.3346634,47.61059952,2466
1984,1,45,321,184.8000031,KPMG Tower,steel,Los Angeles,1611,US,163,-118.2526169,34.0521698,2697
1963,1,44,322,184.7100067,ExxonMobil Building,steel,Houston,1593,US,163,-95.36950684,29.75355911,2157
2015,2,46,323,184.5099945,Baccarat Hotel & Residences,concrete,New York City,1641,US,163,-73.97741699,40.76079178,14312
2008,1,54,324,184.4100037,One Rincon Hill South Tower,concrete,San Francisco,1683,US,163,-122.3920975,37.78580093,2161
1930,1,44,325,184.4100037,Chicago Board of Trade,steel,Chicago,1539,US,163,-87.63237762,41.87760925,2164
1962,1,0,326,184.4100037,Space Needle,steel,Seattle,1680,US,163,-122.3492966,47.62049866,9603
2006,1,60,327,184.1000061,The Orion,concrete,New York City,1641,US,163,-73.99226379,40.75794983,2167
1931,1,0,328,184,George Washington Bridge,steel,New York City,1641,US,163,-73.95197296,40.8517189,16478
2010,1,52,329,183.9499969,Cosmopolitan Casino Spa Tower,concrete/steel,Las Vegas,1610,US,163,-115.1764908,36.1099205,2177
2010,1,50,330,183.9499969,Cosmopolitan Casino Beach Club Tower,concrete/steel,Las Vegas,1610,US,163,-115.1742477,36.11026001,2178
1983,1,41,331,183.8000031,590 Madison Avenue,steel,New York City,1641,US,163,-73.97299194,40.76213074,2181
1954,1,36,332,183.5,Gables Republic Tower,steel,Dallas,1554,US,163,-96.7978363,32.78329849,9101
2013,1,40,333,183.4299927,250 West 55th Street,steel,New York City,1641,US,163,-73.98361969,40.76502991,8767
2009,2,54,335,183.1999969,Epic Residences & Hotel,concrete,Miami,1632,US,163,-80.18930054,25.77059937,8982
1972,1,44,337,183.1900024,CNA Plaza,steel,Chicago,1539,US,163,-87.62560272,41.87739944,2188
1973,1,42,338,183.1900024,U.S. Bank Center,steel,Milwaukee,1634,US,163,-87.90196228,43.03828049,2189
1970,1,41,339,183.1900024,BNY Mellon Center at One Boston Place,steel,Boston,1524,US,163,-71.05834961,42.35855865,2185
1955,1,41,339,183.1900024,One Prudential Plaza,steel,Chicago,1539,US,163,-87.62319946,41.88489151,2190
2011,1,40,341,183.1000061,Eleven Times Square,composite,New York City,1641,US,163,-73.98963165,40.75677109,2192
1982,1,48,342,183,101 California Street,steel,San Francisco,1683,US,163,-122.3978729,37.79286957,2208
1985,1,43,343,183,50 Fremont Center,steel,San Francisco,1683,US,163,-122.397171,37.79050827,2217
1974,1,44,344,182.9100037,1166 Avenue of the Americas,steel,New York City,1641,US,163,-73.9821167,40.75683975,2214
2009,2,60,345,182.8800049,Aria Resort & Casino,concrete,Las Vegas,1610,US,163,-115.1771393,36.10778046,2194
1987,1,46,346,182.8800049,One International Place,steel,Boston,1524,US,163,-71.05200958,42.35570908,2209
2002,1,40,347,182.8800049,1500 Louisiana Street,steel,Houston,1593,US,163,-95.37129974,29.7544899,2222
1992,1,45,348,182.8600006,Heller International Tower,concrete,Chicago,1539,US,163,-87.64041901,41.88090134,2211
1982,1,44,350,182.4600067,Madison Plaza,steel,Chicago,1539,US,163,-87.63440704,41.88235855,2248
1964,1,50,352,182.2700043,Republic Center Tower II,steel,Dallas,1554,US,163,-96.79723358,32.78339005,2231
2014,1,54,353,182.25,Hawthorn Park,concrete,New York City,1641,US,163,-73.98609161,40.77196121,2005
2006,2,42,354,182.1799927,Russell Investments Center,steel,Seattle,1680,US,163,-122.3381119,47.60779953,2232
2009,2,50,355,182,Planet Hollywood Towers,concrete,Las Vegas,1610,US,163,-115.1687164,36.10897827,2237
2006,1,46,356,181.9700012,Hearst Tower,steel,New York City,1641,US,163,-73.98375702,40.76654053,2245
2015,1,57,357,181.6600037,Avalon Willoughby West,concrete,New York City,1641,US,163,-73.98497009,40.69194031,9815
2010,1,54,359,181.3000031,The Grant,concrete,Chicago,1539,US,163,-87.62201691,41.86708832,1879
1988,1,42,360,180.75,One Metropolitan Square,composite,St. Louis,1693,US,163,-90.18955231,38.62741089,2278
1973,1,45,361,180.4400024,Celanese Building,steel,New York City,1641,US,163,-73.98226166,40.75857925,2279
1964,1,55,362,179.8300018,1000 Lake Shore Plaza,concrete,Chicago,1539,US,163,-87.62451172,41.90103912,2358
2014,1,51,363,179.8300018,388 Bridge Street,concrete,New York City,1641,US,163,-73.98558807,40.69165039,3266
1984,1,46,364,179.8300018,One Financial Center,steel,Boston,1524,US,163,-71.05623627,42.35224152,2363
1936,1,37,365,179.8300018,Thurgood Marshall U.S. Court House,steel,New York City,1641,US,163,-74.00251007,40.71368027,2370
2009,1,53,366,179.4799957,The Clare at Water Tower,concrete,Chicago,1539,US,163,-87.62618256,41.8972702,2374
2008,1,54,367,179.3300018,Sky House,concrete,New York City,1641,US,163,-73.98558807,40.74507904,2381
1992,1,58,368,179.2299957,The Millenium Hilton,concrete,New York City,1641,US,163,-74.01039886,40.71118927,2379
1988,1,42,369,179.2299957,One Wells Fargo Center,steel,Charlotte,1544,US,163,-80.8446579,35.22404861,2386
1959,1,48,370,178.9199982,Time-Life Building,steel,New York City,1641,US,163,-73.98097992,40.76052856,2395
1967,1,41,371,178.9199982,Jacob K. Javits Federal Building,steel,New York City,1641,US,163,-74.00434875,40.7154007,2401
2008,1,58,373,178.6199951,Icon Brickell North Tower,concrete,Miami,1632,US,163,-80.18888855,25.76893997,2404
2008,1,58,373,178.6199951,Icon Brickell South Tower,concrete,Miami,1632,US,163,-80.188797,25.7682991,2405
2007,1,50,375,178.3099976,Ten Museum Park,concrete,Miami,1632,US,163,-80.18998718,25.78463936,2412
2002,1,53,377,177.8500061,W Times Square,concrete,New York City,1641,US,163,-73.98561096,40.75934982,2415
2013,2,49,378,177.6199951,Mid Continental Plaza,concrete,Chicago,1539,US,163,-87.6256485,41.88008881,14135
1970,2,44,379,177.6199951,Trump International Hotel & Tower,steel,New York City,1641,US,163,-73.98159027,40.76911163,2435
1932,1,44,380,177.3999939,Gulf Tower,steel,Pittsburgh,1661,US,163,-79.99514771,40.44261932,2439
1983,1,41,381,177.3999939,Crain Communications Building,concrete,Chicago,1539,US,163,-87.62489319,41.88478851,2441
1985,1,42,382,177.2400055,Campbell Mithun Tower,steel/concrete,Minneapolis,1627,US,163,-93.27002716,44.97364044,2440
2008,1,45,383,177.1000061,360 Condominiums,concrete,Austin,1510,US,163,-97.74964905,30.26729965,2654
1990,1,61,384,177.0899963,North Pier Apartments,concrete,Chicago,1539,US,163,-87.61450195,41.89080811,2442
2003,1,39,385,176.8399963,Citadel Center,steel,Chicago,1539,US,163,-87.62889099,41.87971878,2469
1971,1,42,386,176.7899933,Stevens Tower,steel,New York City,1641,US,163,-73.98238373,40.75783157,2468
2008,1,42,386,176.7899933,The Mansion on Peachtree,concrete,Atlanta,1509,US,163,-84.36656952,33.84944916,2467
1984,1,37,388,176.7899933,One AT&T Plaza,steel,Dallas,1554,US,163,-96.79872894,32.77957916,2470
1914,1,34,389,176.7899933,Municipal Building,steel,New York City,1641,US,163,-74.00366211,40.7129097,2471
1984,1,45,390,176.4799957,Ross Tower,concrete,Dallas,1554,US,163,-96.80023956,32.7844696,2472
1992,1,42,391,176.4799957,Regions Building,steel,Tampa,1702,US,163,-82.45822144,27.94551086,2474
1974,1,40,392,176.4799957,Two Houston Center,steel,Houston,1593,US,163,-95.36331177,29.75639915,2475
1985,1,42,393,176.1799927,One California Plaza,steel,Los Angeles,1611,US,163,-118.2513428,34.05226898,2478
2009,1,46,395,175.8699951,The Atlantic,concrete,Atlanta,1509,US,163,-84.39758301,33.79085922,2485
1982,1,43,396,175.8699951,520 Madison Avenue,concrete/steel,New York City,1641,US,163,-73.97438812,40.76028061,2488
1985,1,37,397,175.8699951,One World Financial Center,steel,New York City,1641,US,163,-74.01567841,40.71047974,2495
1973,1,42,398,175.5700073,Merchandise Mart,steel,New York City,1641,US,163,-73.98631287,40.74235153,2500
2010,1,50,399,175.5,The Vue,concrete,Charlotte,1544,US,163,-80.84475708,35.23102951,1551
2002,1,40,400,175.2599945,5 Times Square,steel,New York City,1641,US,163,-73.98760223,40.75590897,2541
2003,1,38,401,175.2599945,300 Madison Avenue,steel,New York City,1641,US,163,-73.98007965,40.75267029,3174
2001,1,38,401,175.2599945,Lehman Building,steel,New York City,1641,US,163,-73.98288727,40.7605896,2510
2008,1,51,404,175,Jade on the Beach,concrete,Sunny Isles Beach,1686,US,163,-80.12097168,25.93354034,2524
1931,1,49,405,175,Carew Tower,steel,Cincinnati,1550,US,163,-84.51322174,39.1007309,2528
1985,1,56,406,174.9600067,New York Marriott Marquis Hotel,steel,New York City,1641,US,163,-73.98612213,40.75862122,2517
1983,1,47,407,174.9600067,Wells Fargo Center,steel,Seattle,1680,US,163,-122.3339691,47.60514069,2530
1967,1,42,408,174.9600067,299 Park Avenue,steel,New York City,1641,US,163,-73.97428131,40.75603104,2537
2003,1,52,409,174.8099976,The Fordham,concrete,Chicago,1539,US,163,-87.62719727,41.89540863,2522
1987,1,40,410,174.6499939,190 South LaSalle,steel,Chicago,1539,US,163,-87.63278198,41.87973022,2551
1975,1,40,410,174.6499939,Chevron Tower,steel,San Francisco,1683,US,163,-122.400322,37.78956985,2552
1956,1,42,412,174.3500061,Socony Mobil Building,steel,New York City,1641,US,163,-73.97551727,40.75074005,2566
1963,1,43,413,174.0399933,1290 Avenue of the Americas,steel,New York City,1641,US,163,-73.97917938,40.76060867,2579
2005,1,39,414,173.9400024,One South Dearborn,composite,Chicago,1539,US,163,-87.62872314,41.88166046,2580
1986,2,58,416,173.7400055,Onterie Center,concrete,Chicago,1539,US,163,-87.61637115,41.89382172,2585
1983,1,49,417,173.7400055,780 3rd Avenue,concrete,New York City,1641,US,163,-73.97183228,40.75492096,2587
1984,1,45,419,173.7400055,Four Embarcadero Center,steel,San Francisco,1683,US,163,-122.3961182,37.79539108,2589
1971,1,42,420,173.7400055,600 3rd Avenue,steel,New York City,1641,US,163,-73.97585297,40.74935913,2591
1939,2,0,421,173.6999969,San Jacinto Monument,masonry,La Porte,2270,US,163,-95.08071136,29.74986076,18678
1970,1,45,422,173.4299927,One Embarcadero Center,steel,San Francisco,1683,US,163,-122.3995819,37.79455948,2595
1928,1,47,423,173.2599945,Penobscot Building,steel,Detroit,1559,US,163,-83.04750061,42.33026886,2620
1991,1,38,425,173.1300049,450 Lexington Avenue,steel,New York City,1641,US,163,-73.9753418,40.75328064,2602
1924,2,23,426,173.1300049,Chicago Temple Building,steel,Chicago,1539,US,163,-87.63070679,41.88304138,2609
1998,1,51,427,172.8200073,Paramount Tower,concrete,New York City,1641,US,163,-73.97457123,40.74795914,2612
1967,1,43,428,172.25,44 Montgomery,steel,San Francisco,1683,US,163,-122.4018936,37.78987122,2624
1929,1,37,429,172.2100067,Palmolive Building,steel,Chicago,1539,US,163,-87.62348175,41.89981079,2626
1928,1,35,430,172.2100067,230 Park Avenue,steel,New York City,1641,US,163,-73.97592163,40.75442886,2630
1976,1,42,431,172,Spear Tower,steel,San Francisco,1683,US,163,-122.394371,37.7933197,2625
2002,1,36,432,172,111 Huntington Avenue,steel,Boston,1524,US,163,-71.08162689,42.34648132,2646
2015,1,33,433,172,The Tower at PNC Plaza,composite,Pittsburgh,1661,US,163,-80.00022125,40.44028091,14069
1964,1,61,434,171.3999939,Marina City I,concrete,Chicago,1539,US,163,-87.62850189,41.88816833,2377
1964,1,61,434,171.3999939,Marina City II,concrete,Chicago,1539,US,163,-87.62915039,41.88793182,2378
1974,1,42,436,171.3000031,Kluczynski Federal Building,steel,Chicago,1539,US,163,-87.62995911,41.87845993,2982
1932,1,48,437,171,30 Broad Street,steel,New York City,1641,US,163,-74.01167297,40.70621872,2660
1981,1,40,438,171,US Bank Plaza I,concrete,Minneapolis,1627,US,163,-93.26766205,44.977211,2684
1983,1,56,439,170.6900024,Huron Plaza,concrete,Chicago,1539,US,163,-87.6265564,41.89519119,2691
1931,1,46,440,170.6900024,Nelson Tower,steel,New York City,1641,US,163,-73.99086761,40.75146866,2695
1927,1,40,441,170.6900024,Hotel Sherry-Netherland,steel,New York City,1641,US,163,-73.97270966,40.76433182,2702
1990,1,36,442,170.6900024,Boeing International Headquarters,steel,Chicago,1539,US,163,-87.63893127,41.88407135,2704
1978,1,0,444,170.6900024,Reunion Tower,concrete,Dallas,1554,US,163,-96.80896759,32.77536011,13976
2013,1,42,445,170.6799927,Museum Tower,concrete,Dallas,1554,US,163,-96.80011749,32.78945923,2700
2000,1,44,446,170.3899994,Blue Diamond Tower,concrete,Miami Beach,1622,US,163,-80.12142181,25.82324028,2708
2000,1,44,446,170.3899994,Green Diamond Tower,concrete,Miami Beach,1622,US,163,-80.12155914,25.82239914,2709
1986,1,51,448,170,South Park Tower,concrete,New York City,1641,US,163,-73.98581696,40.77011871,3517
1986,1,52,449,169.7799988,100 United Nations Plaza,concrete,New York City,1641,US,163,-73.96778107,40.75318146,2772
1962,1,39,450,169.7799988,Continental Can Building,steel,New York City,1641,US,163,-73.97471619,40.74956131,2775
1991,1,56,451,169.4700012,The Parkshore,concrete,Chicago,1539,US,163,-87.61460114,41.88565063,2782
1988,1,55,452,169.4700012,North Harbor Tower,concrete,Chicago,1539,US,163,-87.61535645,41.88544083,2783
2009,1,55,452,169.4700012,VDARA,concrete,Las Vegas,1610,US,163,-115.1783676,36.10958862,2816
1967,1,44,454,169.4700012,State of Georgia Building,steel,Atlanta,1509,US,163,-84.39054871,33.75407028,2796
1927,1,47,455,169.3000031,Leveque Tower,steel,Columbus,1545,US,163,-83.0021286,39.96237183,2802
2001,1,30,457,169.1999969,Reuters Building,steel,New York City,1641,US,163,-73.9870224,40.75669098,2809
1929,2,45,458,169.1699982,Civic Opera Building,steel,Chicago,1539,US,163,-87.63745117,41.88262177,2805
1964,1,41,459,169.1699982,330 Madison Avenue,steel,New York City,1641,US,163,-73.97950745,40.75333023,2808
1915,1,38,460,169.1600037,Equitable Building,steel,New York City,1641,US,163,-74.01049805,40.70822144,2993
2009,1,47,461,169.1399994,Paramount at Edgewater Square,concrete,Miami,1632,US,163,-80.18786621,25.79673958,3898
1884,1,0,462,169.0500031,Washington Monument,masonry,Washington D.C.,1719,US,163,-77.03523254,38.88946915,13977
1975,1,54,463,169,Harbor Point,concrete,Chicago,1539,US,163,-87.61470795,41.88491058,2899
2011,1,48,464,169,Tower 111,concrete,New York City,1641,US,163,-73.98918152,40.74848175,2821
2007,2,55,465,168.8600006,50 Biscayne,concrete,Miami,1632,US,163,-80.18778229,25.77479935,2810
1985,1,52,466,168.8600006,Marriott Marquis Hotel,concrete,Atlanta,1509,US,163,-84.38477325,33.76163101,2814
2008,2,51,467,168.8600006,Quantum on the Bay South Tower,concrete,Miami,1632,US,163,-80.18707275,25.79464912,2815
1999,1,48,468,168.8600006,The Belvedere,concrete,New York City,1641,US,163,-73.9861908,40.74475861,2820
2009,1,55,469,168.7599945,Streeter Place,concrete,Chicago,1539,US,163,-87.61804962,41.89216995,2586
1974,1,53,470,168.5599976,Newberry Plaza,concrete,Chicago,1539,US,163,-87.6288681,41.90156174,2824
1985,1,46,471,168.5599976,Michigan Plaza South,concrete,Chicago,1539,US,163,-87.62348175,41.88600922,2825
1970,1,45,472,168.25,1133 Avenue of the Americas,steel,New York City,1641,US,163,-73.98381042,40.75600052,2834
1984,1,43,473,168,One Sansome Street,steel,San Francisco,1683,US,163,-122.4012375,37.79048157,2915
1927,1,38,474,167.9700012,Pittsfield Building,steel,Chicago,1539,US,163,-87.62567902,41.88304901,2883
1963,1,44,475,167.9499969,Unysys Building,steel,New York City,1641,US,163,-73.97506714,40.74898911,2913
2005,1,43,476,167.9499969,Trump Palace,concrete,Sunny Isles Beach,1686,US,163,-80.12001801,25.94393921,2866
1927,1,42,477,167.9499969,Downtown by Philippe Starck,steel,New York City,1641,US,163,-74.01069641,40.70642853,2874
1974,2,29,478,167.9499969,AT&T Long Lines Building,steel,New York City,1641,US,163,-74.0059967,40.7164917,2928
2013,2,53,480,167.6399994,Hyatt Times Square,concrete,New York City,1641,US,163,-73.98403931,40.75756836,13019
2004,1,51,481,167.6399994,Acqualina Ocean Residences,concrete,Sunny Isles Beach,1686,US,163,-80.12049103,25.94075966,2901
2003,1,51,481,167.6399994,The Biltmore,concrete,New York City,1641,US,163,-73.98693085,40.76050186,2900
1983,1,44,484,167.6399994,WEDGE International Tower,steel,Houston,1593,US,163,-95.36992645,29.75468063,2911
2008,1,43,485,167.6399994,Trump Royale,concrete,Sunny Isles Beach,1686,US,163,-80.12000275,25.94492912,2867
1959,1,42,486,167.6399994,Sheraton Dallas Hotel Central Tower,steel,Dallas,1554,US,163,-96.7947998,32.78511047,2916
1973,1,40,487,167.6399994,KBR Tower,steel,Houston,1593,US,163,-95.37241364,29.75317001,2921
2008,1,35,488,167.6399994,The Tower at 15 Central Park West,concrete,New York City,1641,US,163,-73.98158264,40.7699585,2926
1992,1,35,489,167.3399963,400 West Market,composite,Louisville,1620,US,163,-85.75713348,38.25495148,2938
1971,1,41,492,167.0299988,Bankers Trust West Annex,steel,New York City,1641,US,163,-73.97560883,40.75667191,2964
2015,1,44,495,167,50 United Nations Plaza,concrete,New York City,1641,US,163,-73.96833038,40.75177002,14829
2015,2,49,496,166.5700073,455 North Park Drive ?Loews Chicago Hotel,concrete,Chicago,1539,US,163,-87.619133,41.89007187,14094
1988,1,55,497,166.4199982,The Corinthian,concrete,New York City,1641,US,163,-73.9729538,40.74647141,2967
1973,1,40,498,166.4199982,Wells Fargo Center,steel,Portland,1656,US,163,-122.6793518,45.51433945,2973
1988,1,38,499,166.4199982,San Antonio Marriott Rivercenter,concrete,San Antonio,1678,US,163,-98.48378754,29.42324066,2974
1928,1,44,500,166.1199951,Transportation Building,steel,New York City,1641,US,163,-74.00868225,40.71194839,2970
2009,1,51,501,166,Jade Ocean,concrete,Sunny Isles Beach,1686,US,163,-80.12094879,25.93438911,3008
2002,1,57,502,165.8800049,Park Millennium,concrete,Chicago,1539,US,163,-87.62138367,41.88660049,2998
1975,2,55,503,165.8000031,The Galleria,concrete,New York City,1641,US,163,-73.96974945,40.76176071,2999
1981,1,42,504,165.5099945,Bank of America Fifth Avenue Plaza,steel,Seattle,1680,US,163,-122.3302383,47.60589981,3010
2007,1,56,505,165.5,Opera Tower,concrete,Miami,1632,US,163,-80.18720245,25.79244995,3006
2005,1,51,506,165.5,2 Gold Street,concrete,New York City,1641,US,163,-74.00698853,40.70729065,3007
2013,1,49,507,165.4799957,AMLI River North,concrete,Chicago,1539,US,163,-87.63069153,41.88980103,13165
2003,1,49,508,165.2599945,220 Riverside Boulevard At Trump Place,concrete,New York City,1641,US,163,-73.98744202,40.77954865,3015
1988,1,41,509,165.25,17 State Street,steel,New York City,1641,US,163,-74.01394653,40.70283127,3024
2009,2,50,510,165.1999969,Viceroy,concrete,Miami,1632,US,163,-80.18978119,25.76877975,4271
1973,1,38,511,165.1999969,Grand Central Plaza,steel,New York City,1641,US,163,-73.97590637,40.75009155,3026
2014,1,45,513,165,One Rincon Hill North Tower,steel,San Francisco,1683,US,163,-122.3919907,37.78641891,3047
1926,1,41,514,164.8999939,Ritz Hotel Tower,steel,New York City,1641,US,163,-73.9702301,40.76158905,3092
1960,1,42,516,164.6000061,1285 Avenue of the Americas,steel,New York City,1641,US,163,-73.98014069,40.76102066,3091
1998,1,0,517,164.6000061,"Eiffel Tower, Paris Las Vegas",steel,Las Vegas,1610,US,163,-115.1721191,36.11244965,14040
1912,1,29,518,164.5899963,14 Wall,steel,New York City,1641,US,163,-74.01075745,40.70761871,3097
2009,2,47,519,164.2899933,Mandarin Oriental Hotel Las Vegas,steel/concrete,Las Vegas,1610,US,163,-115.1746902,36.10617828,3099
1992,1,40,520,164.1399994,RBC Plaza,concrete,Minneapolis,1627,US,163,-93.27082825,44.97819138,3102
2008,1,49,521,164,"Vizcayne, North Tower",concrete,Miami,1632,US,163,-80.18842316,25.77699089,3104
2008,1,49,521,164,"Vizcayne, South Tower",concrete,Miami,1632,US,163,-80.18894196,25.77651978,3105
1993,1,35,524,164,Two International Place,steel,Boston,1524,US,163,-71.05174255,42.3563385,3114
1929,1,45,525,163.9799957,Lefcourt Colonial Building,steel,New York City,1641,US,163,-73.97930908,40.75175858,3122
1982,1,38,526,163.9799957,Shaklee Terrace Building,steel,San Francisco,1683,US,163,-122.3988037,37.79182816,3125
2008,1,32,527,163.9799957,RBC Plaza,concrete,Raleigh,1667,US,163,-78.6400528,35.77434921,3118
1990,1,53,528,163.6799927,Tribeca Tower,concrete,New York City,1641,US,163,-74.00595093,40.71580124,3119
2008,2,44,529,163.3800049,Quantum on the Bay North Tower,concrete,Miami,1632,US,163,-80.18766022,25.79478073,3126
1983,1,42,530,163.3800049,U.S. Bancorp Tower,steel,Portland,1656,US,163,-122.6758804,45.52276993,3130
1973,1,41,531,163.3800049,901 Fifth Avenue,steel,Seattle,1680,US,163,-122.3318787,47.60583115,3131
2004,1,48,532,163.0700073,The Pinnacle,concrete,Chicago,1539,US,163,-87.62709045,41.89450836,3138
1934,1,45,533,163.0700073,LaSalle National Bank,steel,Chicago,1539,US,163,-87.63163757,41.87974167,3149
1936,1,42,534,163.0700073,Cathedral of Learning,steel,Pittsburgh,1661,US,163,-79.95316315,40.44430161,3166
1975,1,37,535,163.0700073,Modis Tower,steel,Jacksonville,1604,US,163,-81.65886688,30.32585907,3171
1986,1,41,537,162.7599945,Ernst & Young Plaza,steel,Los Angeles,1611,US,163,-118.2609329,34.04925919,3178
2015,1,40,538,162.5,2929 Weslayan,concrete,Houston,1593,US,163,-95.44116974,29.73866081,15113
1969,1,41,540,162.4600067,1700 Broadway,steel,New York City,1641,US,163,-73.98226929,40.76358032,3190
1982,1,38,541,162.4600067,One America Tower,steel,Indianapolis,1600,US,163,-86.16036224,39.77038956,3193
2008,1,55,542,162.1600037,Trump Plaza Residences,concrete,Jersey City,1605,US,163,-74.03656769,40.71974182,3197
2002,1,45,543,162.1600037,Westin New York at Times Square,concrete,New York City,1641,US,163,-73.989151,40.75759125,3200
1931,1,42,544,162.1600037,DuMont Building,steel,New York City,1641,US,163,-73.97354126,40.75978851,3427
2010,1,52,545,162,The Brooklyner,concrete,New York City,1641,US,163,-73.98586273,40.69272995,3557
1999,1,43,546,162,515 Park Avenue,concrete,New York City,1641,US,163,-73.9691391,40.76322937,3202
1971,1,56,547,161.8500061,Park Place Tower,concrete,Chicago,1539,US,163,-87.64753723,41.95439911,3213
1968,1,45,548,161.8500061,Plaza Tower,steel,New Orleans,1636,US,163,-90.07647705,29.94627953,3219
1930,1,48,549,161.5500031,One North LaSalle Street,steel,Chicago,1539,US,163,-87.63214111,41.88233948,3231
1990,1,33,550,161.5500031,William Green Building,steel,Columbus,1545,US,163,-83.00241089,39.96646881,3244
2015,1,50,551,161.3899994,70 Columbus,concrete,Jersey City,1605,US,163,-74.04058075,40.71905899,18644
1973,2,56,553,161.2400055,Elysees Condominiums,concrete,Chicago,1539,US,163,-87.62519073,41.89801025,3248
1973,1,40,554,161.2400055,Legg Mason Building,concrete,Baltimore,1514,US,163,-76.61444092,39.28723145,3252
1964,1,40,554,161.2400055,Tower at Erieview,steel,Cleveland,1543,US,163,-81.68862152,41.50531006,3254
1972,1,38,556,161.2400055,First Market Tower,steel,San Francisco,1683,US,163,-122.3991394,37.79050827,3255
1969,1,38,556,161.2400055,McKesson Plaza,steel,San Francisco,1683,US,163,-122.4026566,37.78881073,3256
2004,1,49,560,160.9400024,Jade at Brickell Bay,concrete,Miami,1632,US,163,-80.18946838,25.76033974,3265
2001,1,48,561,160.9400024,The Metropolis,concrete,New York City,1641,US,163,-73.97425079,40.75207901,3267
2010,1,47,562,160.7799988,William Beaver House,concrete,New York City,1641,US,163,-74.01035309,40.70531082,3396
1919,1,24,563,160.6300049,Travelers Tower,steel,Hartford,1591,US,163,-72.67266083,41.76440811,3285
1972,1,41,565,160.3300018,North American Plywood Building,steel,New York City,1641,US,163,-73.97131348,40.75559998,3289
1965,1,40,566,160.3000031,Vehicle Assembly Building,steel,Cape Canaveral,1546,US,163,-80.65075684,28.58600998,3337
2008,2,44,567,160.0200043,Harrah`s Waterfront Tower,concrete,Atlantic City,1501,US,163,-74.42951965,39.38483047,9345
2007,1,48,568,160,Plaza on Brickell Tower II,concrete,Miami,1632,US,163,-80.1905899,25.76466942,3306
1928,1,44,569,160,Hotel Pierre,steel,New York City,1641,US,163,-73.97177887,40.76507187,3321
1980,1,39,570,160,767 3rd Avenue,steel,New York City,1641,US,163,-73.97142792,40.7542305,3351
1977,1,56,571,159.7200012,River Plaza,concrete,Chicago,1539,US,163,-87.62573242,41.88988113,3383
1961,1,41,572,159.7200012,Citibank Building,steel,New York City,1641,US,163,-73.9718399,40.75917053,3388
2016,1,37,573,159.7200012,Amazon Tower I,composite,Seattle,1680,US,163,-122.3400574,47.61616135,17083
1973,1,38,574,159.6999969,425 Market Street,steel,San Francisco,1683,US,163,-122.3981018,37.79122162,3391
1927,1,40,576,159.4100037,35 East Wacker Drive,steel,Chicago,1539,US,163,-87.62676239,41.88653183,3398
1976,1,36,577,159.4100037,Pennzoil Place I,composite,Houston,1593,US,163,-95.36538696,29.76021957,3399
1976,1,36,577,159.4100037,Pennzoil Place II,composite,Houston,1593,US,163,-95.36578369,29.76004028,3400
1943,1,31,579,159.4100037,Mercantile Building,steel,Dallas,1554,US,163,-96.79669189,32.78084183,3403
1962,1,41,580,159.1100006,Kemper Building,steel,Chicago,1539,US,163,-87.62757111,41.88653183,3413
1969,1,40,581,159.1100006,825 Third Avenue,steel,New York City,1641,US,163,-73.97009277,40.75579834,3415
1928,2,38,583,158.8999939,Mather Tower,steel,Chicago,1539,US,163,-87.62539673,41.88764954,3421
2007,1,46,584,158.8000031,Atelier,concrete,New York City,1641,US,163,-73.99945831,40.76158905,3420
1997,1,51,586,158.5,Santa Maria,concrete,Miami,1632,US,163,-80.19477844,25.75547028,3423
1951,1,41,588,158.5,Three Mellon Center,steel,Pittsburgh,1661,US,163,-79.99746704,40.44021988,3429
1987,1,40,589,158.5,10 South Wacker,concrete,Chicago,1539,US,163,-87.63773346,41.88159943,3431
1983,1,40,589,158.5,30 South Wacker,concrete,Chicago,1539,US,163,-87.63775635,41.88087082,3432
1976,1,38,591,158.5,One Federal Street,steel,Boston,1524,US,163,-71.0568924,42.35630035,3434
1924,1,31,592,158.5,26 Broadway,steel,New York City,1641,US,163,-74.01300812,40.70529175,3439
1931,1,42,593,158,Newsweek Building,steel,New York City,1641,US,163,-73.97609711,40.75770187,3460
2003,1,36,594,158,RRI Energy Plaza,concrete,Houston,1593,US,163,-95.36554718,29.75695038,3485
2009,1,46,595,157.8899994,The Residences at the Ritz-Carlton,concrete,Philadelphia,1657,US,163,-75.16500854,39.95153046,3454
1930,2,39,596,157.8899994,The Downtown Club,steel,New York City,1641,US,163,-74.01570892,40.70608902,3479
2008,2,50,597,157.7599945,Palms Place,concrete,Las Vegas,1610,US,163,-115.1987,36.11408997,3452
2008,1,47,598,157.6600037,The Columbian,concrete,Chicago,1539,US,163,-87.62458801,41.86769867,3507
1990,1,37,600,157.5800018,TCW Tower,steel,Los Angeles,1611,US,163,-118.2630463,34.04682159,3514
2009,1,42,601,157.4400024,785 8th Avenue,concrete,New York City,1641,US,163,-73.98747253,40.76102066,2622
2002,1,37,602,157.4100037,191 North Wacker Drive,composite,Chicago,1539,US,163,-87.63665009,41.88534927,3530
1988,1,49,603,157.2799988,Highpoint Condominiums,concrete,New York City,1641,US,163,-73.97360992,40.7485199,3518
1968,1,40,605,157.2799988,Union Bank Plaza,steel,Los Angeles,1611,US,163,-118.2573776,34.05316925,3524
2004,1,33,606,157.1999969,Frost Bank Tower,concrete,Austin,1510,US,163,-97.74295807,30.26633072,3531
1990,1,51,607,156.9700012,401 East Ontario Street,concrete,Chicago,1539,US,163,-87.61673737,41.89329147,3533
1964,1,41,608,156.9700012,Sterling Drug Company Building,steel,New York City,1641,US,163,-73.97923279,40.75070953,3545
1958,1,38,609,156.9700012,Seagram Building,steel,New York City,1641,US,163,-73.97223663,40.75844955,3529
2007,1,50,611,156.6699982,The Streeter,concrete,Chicago,1539,US,163,-87.61882782,41.89241028,3558
1977,1,31,612,156.6699982,Rainier Tower,steel,Seattle,1680,US,163,-122.334343,47.60879898,3568
2012,2,43,613,156.4100037,1214 Fifth Avenue,concrete,New York City,1641,US,163,-73.95233917,40.79124069,2643
2009,1,47,614,156.3600006,600 North Lake Shore Drive - South Tower,concrete,Chicago,1539,US,163,-87.61482239,41.89292145,3572
1984,1,36,615,156.3600006,Mid-Continent Tower,steel,Tulsa,1706,US,163,-95.98886871,36.15272141,3577
1927,1,31,616,156.3600006,Bank of New York Building,steel,New York City,1641,US,163,-74.00913239,40.70642853,3580
1973,1,54,617,156.3099976,Park Tower Condominiums,concrete,Chicago,1539,US,163,-87.65471649,41.98014832,3569
2008,1,45,618,156.1600037,The Ivy,concrete,Miami,1632,US,163,-80.19515991,25.77042961,3592
1930,1,44,619,156.0599976,Millennium Towers North,steel,New York City,1641,US,163,-73.98934174,40.75355148,3575
1929,1,42,620,156.0599976,One Hanson Place,steel,New York City,1641,US,163,-73.97763062,40.68548965,3598
1950,1,41,621,156.0599976,1407 Broadway,steel,New York City,1641,US,163,-73.98764038,40.75342178,3601
1935,1,41,621,156.0599976,International Building,steel,New York City,1641,US,163,-73.9777298,40.75915146,3602
1930,1,41,621,156.0599976,LaSalle-Wacker Building,steel,Chicago,1539,US,163,-87.63210297,41.88653183,3600
1967,1,40,624,156.0599976,437 Madison Avenue,steel,New York City,1641,US,163,-73.97535706,40.75740051,3606
1973,1,40,624,156.0599976,Bryan Tower,steel,Dallas,1554,US,163,-96.79638672,32.78527832,3603
2003,1,40,624,156.0599976,Fourth and Madison Building,composite,Seattle,1680,US,163,-122.3331375,47.60565948,3608
1972,1,40,624,156.0599976,PNC Tower,steel,Louisville,1620,US,163,-85.75789642,38.2562294,3605
1931,1,42,628,155.7599945,Continental Building,steel,New York City,1641,US,163,-73.98645782,40.75466156,3620
1984,1,40,629,155.7599945,1155 Avenue of the Americas,steel,New York City,1641,US,163,-73.98335266,40.7566185,3621
1968,1,39,630,155.7599945,K & L Gates Center,steel,Pittsburgh,1661,US,163,-79.99993896,40.44200134,3622
1974,1,35,632,155.4499969,Harris Bank Bank Addition II,steel,Chicago,1539,US,163,-87.63197327,41.8802681,3638
2004,1,45,633,155.3899994,Liberty Plaza,concrete,New York City,1641,US,163,-74.00821686,40.70735931,3633
1924,1,37,634,155.1499939,Bank of America Building,steel,Baltimore,1514,US,163,-76.61402893,39.28921127,3664
1984,1,31,635,155.1499939,KOIN Center,concrete,Portland,1656,US,163,-122.6775589,45.51314926,3675
2010,1,48,636,155.1399994,Hudson Greene East Tower,concrete,Jersey City,1605,US,163,-74.03504944,40.71456909,3819
2010,1,50,637,155.0599976,215 West,concrete,Chicago,1539,US,163,-87.634552,41.88302994,3647
2014,1,48,638,155.0399933,BrickellHouse,concrete,Miami,1632,US,163,-80.1902771,25.76038933,13980
1976,1,39,639,155,Renaissance Center 100 Tower,concrete,Detroit,1559,US,163,-83.04032135,42.32907867,3688
1976,1,39,639,155,Renaissance Center 200 Tower,concrete,Detroit,1559,US,163,-83.03929138,42.32955933,3689
1976,1,39,639,155,Renaissance Center 300 Tower,concrete,Detroit,1559,US,163,-83.03871155,42.32878876,3690
1976,1,39,639,155,Renaissance Center 400 Tower,concrete,Detroit,1559,US,163,-83.03974915,42.32836151,3691
2007,2,38,643,154.8399963,The Westin Virginia Beach Town Center & Residences,concrete,Virginia Beach,1716,US,163,-76.13604736,36.84152985,3695
1972,1,36,645,154.5,One Beacon Street,steel,Boston,1524,US,163,-71.06082153,42.35847855,3703
1953,1,39,646,154.3000031,United Nations Secretariat Building,steel,New York City,1641,US,163,-73.96801758,40.74893951,3737
1970,1,41,647,154.2299957,810 7th Avenue,steel,New York City,1641,US,163,-73.98258209,40.76293182,3706
1984,1,36,648,154.2299957,10 Universal City Plaza,steel,Los Angeles,1611,US,163,-118.3618927,34.13824081,3707
1982,1,50,649,154,400 East Ohio Street,concrete,Chicago,1539,US,163,-87.61737823,41.89284897,3711
2006,1,50,650,153.9299927,The Beach Club Tower 2,concrete,Hallandale Beach,1588,US,163,-80.11831665,25.98493958,3712
1975,2,39,651,153.9299927,One United Nations Plaza,steel,New York City,1641,US,163,-73.9691925,40.75048828,3735
1981,2,39,651,153.9299927,Two United Nations Plaza,steel,New York City,1641,US,163,-73.9695816,40.75083923,3736
1969,1,37,653,153.6199951,One Indiana Square,steel,Indianapolis,1600,US,163,-86.15550995,39.77037048,3757
1988,1,36,654,153.4700012,Fifth Street Towers II,composite,Minneapolis,1627,US,163,-93.268013,44.97826004,3773
1989,1,33,655,153.4700012,Vern Riffe Center for Govermnment and the Arts,steel,Columbus,1545,US,163,-83.00084686,39.96035004,3775
1931,1,43,656,153.3200073,Johns-Manville Building,steel,New York City,1641,US,163,-73.98004913,40.75120163,3765
1974,1,40,657,153.3200073,Bank of America Plaza,steel,Charlotte,1544,US,163,-80.84324646,35.22661972,3768
1962,1,39,658,153.3200073,60 Broad Street,steel,New York City,1641,US,163,-74.01206207,40.70534134,3769
1929,1,37,659,153.3200073,Carbide & Carbon Building,steel,Chicago,1539,US,163,-87.62480164,41.88660049,3770
1928,1,37,659,153.3200073,Lefcourt National Building,steel,New York City,1641,US,163,-73.97981262,40.75416946,3771
2003,1,36,661,153.3200073,State Street Financial Center,steel,Boston,1524,US,163,-71.05838776,42.35274887,3772
2010,1,41,663,153.0700073,Met 2 Marriott Marquis,concrete,Miami,1632,US,163,-80.18913269,25.77131081,9225
1962,1,33,664,153,El Paso Energy Building,steel,Houston,1593,US,163,-95.36737823,29.75785065,3794
1999,1,52,665,152.9100037,One Superior Place,concrete,Chicago,1539,US,163,-87.62905121,41.89543152,3777
2010,1,48,666,152.8200073,Hudson Greene West Tower,concrete,Jersey City,1605,US,163,-74.03578186,40.7146492,3820
1962,1,51,667,152.7100067,Sheraton New York,concrete,New York City,1641,US,163,-73.98156738,40.76234818,3801
2008,1,41,668,152.7100067,Wind,concrete,Miami,1632,US,163,-80.19393158,25.77058029,3803
1992,1,39,669,152.7100067,120 North LaSalle,concrete,Chicago,1539,US,163,-87.63298035,41.88375092,3804
1968,1,39,669,152.7100067,World Apparel Center,steel,New York City,1641,US,163,-73.98758698,40.75421906,3805
1986,1,37,671,152.7100067,10 South LaSalle,composite,Chicago,1539,US,163,-87.63282013,41.8816185,3807
2009,1,37,671,152.7100067,One Park Place,concrete,Houston,1593,US,163,-95.36116791,29.75419998,3809
2008,1,36,673,152.6999969,Viewpoint,concrete,Atlanta,1509,US,163,-84.38382721,33.77788162,3811
2013,1,34,674,152.6600037,International Gem Tower,steel,New York City,1641,US,163,-73.98081207,40.75722885,9212
2010,1,34,675,152.5299988,1450 BRICKELL,concrete,Miami,1632,US,163,-80.19300079,25.75863075,3096
1999,1,49,676,152.3999939,One Columbus Place Tower I,concrete,New York City,1641,US,163,-73.98542023,40.76893997,9975
1999,1,49,676,152.3999939,One Columbus Place Tower II,concrete,New York City,1641,US,163,-73.98590088,40.76935959,9976
2007,1,45,678,152.3999939,Sky Las Vegas,concrete,Las Vegas,1610,US,163,-115.1613388,36.13880157,3825
1974,1,40,680,152.3999939,1818 Market Street,steel,Philadelphia,1657,US,163,-75.1710434,39.95294952,3838
1970,1,40,680,152.3999939,28 State Street,steel,Boston,1524,US,163,-71.05737305,42.35937881,3835
1982,1,38,682,152.3999939,Telesis Tower,steel,San Francisco,1683,US,163,-122.4032822,37.7892189,3847
2009,2,35,683,152.3999939,Memorial Hermann Tower,concrete,Houston,1593,US,163,-95.54540253,29.78256035,3855
1986,1,34,684,152.3999939,Four World Financial Center,steel,New York City,1641,US,163,-74.0160675,40.71400833,3859
1991,1,34,684,152.3999939,One America Plaza,steel,San Diego,1677,US,163,-117.1687317,32.7161293,3860
2008,1,51,686,152.3500061,The Tides,concrete,Chicago,1539,US,163,-87.61798859,41.88669968,3813
1981,1,41,687,152.3000031,200 South Wacker,concrete,Chicago,1539,US,163,-87.63752747,41.87900162,3831
2004,1,45,688,151.8399963,The St. James,concrete,Philadelphia,1657,US,163,-75.15402222,39.9477005,3879
2014,1,47,689,151.8000031,The Modern Tower A,concrete,Fort Lee,1576,US,163,-73.9664917,40.85226059,14316
1926,1,32,691,151.7899933,Barclay-Vesey Building,steel,New York City,1641,US,163,-74.01306915,40.71364975,3887
2008,1,49,692,151.6399994,Parkview West,concrete,Chicago,1539,US,163,-87.61724854,41.89126968,3878
2000,1,31,693,151.6399994,Ameriprise Financial Center,steel/concrete,Minneapolis,1627,US,163,-93.26912689,44.97526169,3888
1960,1,40,694,151.5,80 Pine Street,steel,New York City,1641,US,163,-74.00684357,40.70606995,3892
2013,1,47,695,151.4900055,500 North Lake Shore Drive,concrete,Chicago,1539,US,163,-87.61477661,41.89149857,11965
1992,1,40,696,151.4900055,Manchester Grand Hyatt Hotel,concrete,San Diego,1677,US,163,-117.1679535,32.70959091,3893
2008,1,43,697,151.1799927,The Platinum,concrete,New York City,1641,US,163,-73.98738861,40.75989151,3912
1965,1,41,698,151.1799927,Financial Times Building,steel,New York City,1641,US,163,-73.97849274,40.76197052,3913
1915,1,32,699,151.1799927,Marriott's Custom House,steel,Boston,1524,US,163,-71.0535202,42.35905075,9358
1929,1,40,700,151.0299988,Guardian Building,steel,Detroit,1559,US,163,-83.04615784,42.32978821,10576
1928,1,38,701,151,20 Pine,steel,New York City,1641,US,163,-74.009758,40.70767975,3962
1980,1,41,702,150.9199982,55 West Monroe,concrete,Chicago,1539,US,163,-87.62986755,41.88039017,3927
1983,1,49,703,150.8800049,Ontario Place,concrete,Chicago,1539,US,163,-87.62779999,41.89348984,3919
2007,1,47,704,150.8800049,Avenue Brickell Tower,concrete,Miami,1632,US,163,-80.19168091,25.76318932,3920
1986,2,43,705,150.8800049,333 Bush Street,steel,San Francisco,1683,US,163,-122.4030304,37.79064178,3923
1913,1,31,706,150.8800049,PNC Tower,steel,Cincinnati,1550,US,163,-84.51287079,39.09965134,3949
1949,1,26,707,150.8800049,John Hancock Building,steel,Boston,1524,US,163,-71.07331085,42.34983063,3951
2012,1,40,708,150.8500061,The Ritz-Carlton Residences,concrete,Chicago,1539,US,163,-87.6246109,41.89437866,8745
2008,1,40,709,150.7299957,50 East Chestnut Street,concrete,Chicago,1539,US,163,-87.62615204,41.89855957,3929
2015,1,42,710,150.5700073,Icon Bay,concrete,Miami,1632,US,163,-80.18724823,25.80367088,17094
1971,1,46,711,150.2700043,Hilton San Francisco Union Square,steel,San Francisco,1683,US,163,-122.4110031,37.78538895,3978
1986,1,40,712,150.2700043,1000 Second Avenue,steel,Seattle,1680,US,163,-122.3351974,47.60583878,3981
1931,1,33,713,150.2700043,First National Center,steel,Oklahoma City,1645,US,163,-97.51624298,35.46847153,3982
1929,1,42,714,150,Fuller Building,steel,New York City,1641,US,163,-73.97184753,40.76240921,3997
2004,1,47,716,149.9600067,Akoya Condominiums,concrete,Miami Beach,1622,US,163,-80.11965179,25.84589005,3991
1932,1,36,717,149.9600067,Loews Philadelphia Hotel,steel,Philadelphia,1657,US,163,-75.16015625,39.95159912,18406
1971,1,34,718,149.9600067,Pacific Gas & Electric Building,steel,San Francisco,1683,US,163,-122.395668,37.79179001,4049
2001,1,33,719,149.8899994,Target Plaza South,composite,Minneapolis,1627,US,163,-93.27631378,44.97364044,4055
1999,1,46,720,149.8099976,200 Riverside Boulevard At Trump Place,concrete,New York City,1641,US,163,-73.9878006,40.77920151,3992
2008,1,40,723,149.6600037,Chelsea Stratus,concrete,New York City,1641,US,163,-73.99259949,40.74391937,4075
2007,1,39,724,149.6600037,Twelve Centennial Park Tower I,concrete,Atlanta,1509,US,163,-84.38807678,33.76502991,4077
1965,1,38,725,149.6600037,CBS Building,concrete,New York City,1641,US,163,-73.97875977,40.76123047,9075
2003,1,35,726,149.5,Constellation Place,steel,Los Angeles,1611,US,163,-118.4175262,34.05707169,4078
2010,1,46,727,149.4100037,235 West Van Buren,concrete,Chicago,1539,US,163,-87.63469696,41.87657928,9004
1986,1,30,729,149.3500061,Fifth Third Center,concrete,Nashville,1640,US,163,-86.78018188,36.16378021,9509
2010,1,29,730,149.3500061,Hess Tower,concrete,Houston,1593,US,163,-95.35974884,29.75461006,4083
2004,1,33,731,149.0500031,33 Arch Street,steel,Boston,1524,US,163,-71.05818939,42.35618973,9797
2005,1,37,732,149,Hyatt Regency Denver at the Colorado Convention Center,concrete,Denver,1556,US,163,-104.9938507,39.74356079,12745
1937,1,34,733,149,One Rockefeller Plaza,steel,New York City,1641,US,163,-73.97889709,40.75798035,9810
2000,1,42,734,148.7400055,The Bristol,concrete,Chicago,1539,US,163,-87.62628937,41.89896011,9290
2010,1,38,735,148.7400055,1075 Peachtree Office Tower,concrete,Atlanta,1509,US,163,-84.38259888,33.78382111,9006
1983,1,36,736,148.5700073,333 Wacker Drive,steel,Chicago,1539,US,163,-87.63604736,41.88610077,9021
1972,1,37,737,148.4400024,50 California Street,steel,San Francisco,1683,US,163,-122.3975601,37.79413986,9929
1974,1,37,737,148.4400024,Henry M. Jackson Federal Building,composite,Seattle,1680,US,163,-122.3354568,47.60459137,9675
2002,1,34,739,148.4400024,Mohegan Sun Sky Tower,steel,Montville,1623,US,163,-72.08888245,41.49235916,9508
2008,1,33,740,148.4400024,555 Mission Street,steel,San Francisco,1683,US,163,-122.3985291,37.78858948,9085
2004,3,36,741,148.3999939,Espirito Santo Plaza,concrete,Miami,1632,US,163,-80.1916275,25.76073074,4102
2000,1,44,743,148.1399994,Park Avenue Condominiums,concrete,Atlanta,1509,US,163,-84.36180878,33.85533142,4110
2016,1,48,744,148.0800018,Wolf Point West Tower,concrete,Chicago,1539,US,163,-87.63825226,41.8876915,14278
2003,1,43,745,147.9299927,THEHotel,concrete,Las Vegas,1610,US,163,-115.1778336,36.09294891,4119
2007,1,26,746,147.9100037,Terminus 100,concrete,Atlanta,1509,US,163,-84.37103271,33.8443985,4121
1930,1,40,747,147.8300018,Grant Building,steel,Pittsburgh,1661,US,163,-79.99739838,40.4376297,9830
1931,1,33,748,147.8300018,McGraw-Hill Building,steel,New York City,1641,US,163,-73.99157715,40.75762177,9016
2015,1,50,749,147.7799988,99 Washington Street,concrete,New York City,1641,US,163,-74.01416779,40.70822906,14319
2015,1,43,750,147.75,Regalia,concrete,Sunny Isles Beach,1686,US,163,-80.11934662,25.95690918,13536
1976,1,35,751,147.6000061,One US Bank Plaza,steel,St. Louis,1693,US,163,-90.19090271,38.62997055,12770
2005,2,42,752,147.5299988,St. Regis San Francisco,concrete,San Francisco,1683,US,163,-122.4015198,37.78636932,9930
2011,1,40,753,147.5299988,Brickell World Plaza at 600 Brickell,steel/concrete,Miami,1632,US,163,-80.19082642,25.76755905,4123
2009,1,44,754,147.5200043,"The Residences at the Ritz Carlton, Westchester - North Tower",concrete,White Plains,1723,US,163,-73.76799011,41.03348923,9597
2008,2,44,754,147.5200043,"The Residences at the Ritz Carlton, Westchester - South Tower",concrete,White Plains,1723,US,163,-73.76731873,41.03279114,9598
1983,1,34,756,147.5200043,Miami Center,steel,Miami,1632,US,163,-80.18672943,25.77223969,4124
2010,1,32,757,147.5200043,1 Bank of America Center,composite,Charlotte,1544,US,163,-80.84079742,35.22650909,9566
1997,1,44,759,147.5,Portofino Tower,concrete,Miami Beach,1622,US,163,-80.1349411,25.76773071,10304
2009,1,42,761,147.3200073,Panorama Tower III,concrete,Las Vegas,1610,US,163,-115.1824722,36.10850906,4127
2009,1,41,762,147.2200012,Spire,concrete,Denver,1556,US,163,-104.9956589,39.74485016,3428
1972,1,40,763,147.2200012,Chase Tower,steel,Phoenix,1658,US,163,-112.0730972,33.45087814,8894
1957,1,39,764,147.2200012,666 5th Avenue,steel,New York City,1641,US,163,-73.97664642,40.76028824,9807
2007,1,36,765,147.2200012,Asia,concrete,Miami,1632,US,163,-80.18566895,25.76922989,4128
1967,1,47,766,147,Excelsior House,concrete,New York City,1641,US,163,-73.96457672,40.75952911,9808
2005,1,42,767,146.9199982,Brickell on the River North Tower,concrete,Miami,1632,US,163,-80.19193268,25.76963997,4133
1931,1,34,768,146.6100006,Kansas City Power & Light Building,steel,Kansas City,1633,US,163,-94.58474731,39.09756851,9104
1980,1,34,768,146.6100006,KPMG Centre,steel,Dallas,1554,US,163,-96.79812622,32.7856102,10816
2007,1,45,771,146.4499969,The Regatta,concrete,Chicago,1539,US,163,-87.61602783,41.88721848,9868
2001,1,46,772,146.3000031,Three Tequesta Point,concrete,Miami,1632,US,163,-80.18374634,25.76935959,4146
2015,1,42,773,146.3000031,160 Madison Avenue,concrete,New York City,1641,US,163,-73.98384857,40.74697113,16016
1930,1,38,777,146,33 North LaSalle,steel,Chicago,1539,US,163,-87.63217926,41.88288879,9863
2010,1,42,778,145.6999969,The Century,concrete,Los Angeles,1611,US,163,-118.4146423,34.05622101,4161
2004,1,40,779,145.6999969,Paramount at Buckhead,concrete,Atlanta,1509,US,163,-84.36688232,33.85076904,4162
1928,1,24,780,145.6999969,Consolidated Gas Building,steel,New York City,1641,US,163,-73.98834229,40.73403168,9809
2010,2,45,782,145.6399994,CassaNY,concrete,New York City,1641,US,163,-73.98222351,40.75632858,3560
2014,1,42,783,145.5399933,Summit on Lake,concrete,Chicago,1539,US,163,-87.62545013,41.88539124,14396
2012,1,39,784,145.5399933,Lincoln Park 2550,concrete,Chicago,1539,US,163,-87.6395874,41.92906952,9937
1966,1,33,786,145.3899994,225 Franklin Street,steel,Boston,1524,US,163,-71.05374146,42.35601044,9798
1990,2,29,788,145.3000031,The O'Quinn Medical Tower at St. Luke's,concrete,Houston,1593,US,163,-95.40184784,29.70916939,12656
2010,2,36,789,145.2700043,W Austin Hotel & Residences,concrete,Austin,1510,US,163,-97.74707031,30.26581001,10360
2001,1,38,790,145.2400055,Turnberry Place I,concrete,Las Vegas,1610,US,163,-115.1554184,36.1368103,4166
2002,1,38,790,145.2400055,Turnberry Place II,concrete,Las Vegas,1610,US,163,-115.156723,36.13682175,4167
2004,1,38,790,145.2400055,Turnberry Place III,concrete,Las Vegas,1610,US,163,-115.156723,36.13832092,4168
2006,1,38,790,145.2400055,Turnberry Place IV,concrete,Las Vegas,1610,US,163,-115.1554108,36.13827896,4169
2007,1,44,794,145.1900024,Latitude on the River,concrete,Miami,1632,US,163,-80.19693756,25.76823997,4173
1972,1,34,795,145.1000061,100 Pine Center,steel,San Francisco,1683,US,163,-122.3990631,37.79264069,12689
1927,2,41,796,145.0899963,Bankers Building,steel,Chicago,1539,US,163,-87.63121796,41.87910843,9864
1998,1,40,797,145.0899963,The Pinnacle,concrete,Sunny Isles Beach,1686,US,163,-80.12071228,25.93911934,10335
1930,1,36,798,145.0899963,Daily News Building,steel,New York City,1641,US,163,-73.97344971,40.74985886,9015
1995,1,34,799,145.0899963,Mutual of America Building,steel,New York City,1641,US,163,-73.97425079,40.75769043,4191
1979,1,34,800,145,45 Fremont Center,steel,San Francisco,1683,US,163,-122.3973083,37.79127121,12690
2015,1,42,801,144.9799957,400 Park Avenue South,concrete,New York City,1641,US,163,-73.98462677,40.74335098,13992
2015,1,46,802,144.7799988,135 West 52nd Street,concrete,New York City,1641,US,163,-73.98091125,40.76197052,19567
2008,1,43,803,144.7799988,Electra,steel/concrete,San Diego,1677,US,163,-117.1696472,32.71504974,9922
2008,1,42,804,144.7799988,The Murano,concrete,Philadelphia,1657,US,163,-75.17543793,39.95407104,9900
1926,1,38,805,144.7799988,Book Tower,steel,Detroit,1559,US,163,-83.0515976,42.33348846,10575
2006,1,38,805,144.7799988,The Signature at MGM Grand Tower I,concrete,Las Vegas,1610,US,163,-115.1667786,36.10604095,4187
2006,1,38,805,144.7799988,The Signature at MGM Grand Tower II,concrete,Las Vegas,1610,US,163,-115.1666336,36.10678864,4188
2007,1,38,805,144.7799988,The Signature at MGM Grand Tower III,concrete,Las Vegas,1610,US,163,-115.1666183,36.10750961,4189
1924,1,37,809,144.7799988,Metropolitan Tower,steel,Chicago,1539,US,163,-87.62463379,41.87794876,9865
1964,1,35,810,144.7799988,Cook County Administration Building,concrete,Chicago,1539,US,163,-87.62999725,41.88296127,9866
1929,1,34,811,144.7799988,Koppers Building,steel,Pittsburgh,1661,US,163,-79.99543762,40.44213104,9832
1987,2,36,812,144.6399994,Plaza VII,steel,Minneapolis,1627,US,163,-93.27362061,44.97706985,9462
1991,2,49,813,144.4799957,Plaza 440,concrete,Chicago,1539,US,163,-87.62711334,41.89031982,9292
1926,2,29,814,144.4799957,American Furniture Mart,concrete/steel,Chicago,1539,US,163,-87.61743164,41.89464951,9861
1932,1,28,815,144.3699951,One South Broad,steel,Philadelphia,1657,US,163,-75.1633606,39.9511795,9901
2001,1,48,816,144.1699982,Marymount University Dormitory,concrete,New York City,1641,US,163,-73.96691132,40.75856018,9873
2005,2,32,817,144.1699982,12 Metrotech Center,steel,New York City,1641,US,163,-73.98766327,40.69462967,9840
2010,1,43,819,143.8699951,505 West 37th Street East Tower,concrete,New York City,1641,US,163,-73.99788666,40.75706863,9881
2004,1,38,820,143.8699951,Park Avenue Place,concrete,New York City,1641,US,163,-73.97280121,40.76060104,9884
1961,1,38,820,143.8699951,United States Plywood Building,steel,New York City,1641,US,163,-73.97104645,40.75463867,9885
1987,1,37,822,143.6100006,Wells Fargo Place,concrete,St. Paul,1694,US,163,-93.09552002,44.94815063,10655
2007,1,43,823,143.5599976,The Link,concrete,New York City,1641,US,163,-73.98594666,40.76348877,9886
2006,1,42,824,143.5599976,325 5th Avenue,concrete,New York City,1641,US,163,-73.98490143,40.74731064,9887
1929,1,42,824,143.5599976,Hotel InterContinental,steel,Chicago,1539,US,163,-87.62362671,41.89120102,4216
2002,1,44,826,143.5,"Continuum on South Beach, South Tower",concrete,Miami Beach,1622,US,163,-80.13285065,25.76683998,10305
2015,1,42,827,143.3000031,1100 Millicento Residences,concrete,Miami,1632,US,163,-80.19345856,25.76322937,15115
1990,1,44,828,143.2599945,Embassy Suites Times Square,composite,New York City,1641,US,163,-73.98436737,40.75880051,4217
2010,1,42,829,143.2599945,Aire,concrete,New York City,1641,US,163,-73.98465729,40.77561951,9888
1930,1,41,830,143.2599945,Wyndham New Yorker Hotel,steel,New York City,1641,US,163,-73.99352264,40.75271988,9889
1990,2,40,831,143.2599945,City Place,concrete,Chicago,1539,US,163,-87.6248703,41.89466858,9853
1931,1,37,832,143.2599945,Hampshire House,steel,New York City,1641,US,163,-73.97792053,40.76610184,4219
2008,1,41,833,143.2100067,Trump Taj Mahal - Chairman Tower,concrete,Atlantic City,1501,US,163,-74.41869354,39.360569,10264
2012,3,32,835,143,"Roosevelt University Academic, Student Life Residence Center",steel/concrete,Chicago,1539,US,163,-87.62583923,41.87652969,9171
2009,1,40,836,142.9499969,3630 Peachtree Road,concrete,Atlanta,1509,US,163,-84.35861969,33.85449982,4225
2007,1,41,837,142.8500061,The Carlyle,concrete,Minneapolis,1627,US,163,-93.2629776,44.9818306,9463
1980,1,47,838,142.6499939,Columbus Plaza,concrete,Chicago,1539,US,163,-87.62107086,41.88764954,9862
1990,1,36,839,142.6499939,Scripps Center,steel,Cincinnati,1550,US,163,-84.51029205,39.09922028,10533
2000,1,32,840,142.5,U.S. Bancorp Center,steel,Minneapolis,1627,US,163,-93.27387238,44.97573853,9464
1991,1,34,841,142.3399963,AT&T Tower,steel,Minneapolis,1627,US,163,-93.2725296,44.97396851,9465
2013,1,47,844,142.2200012,Coast at Lakeshore East,concrete,Chicago,1539,US,163,-87.61865997,41.88735962,12514
2001,2,49,845,142.0399933,The Sterling,concrete,Chicago,1539,US,163,-87.63214111,41.88880157,9867
1964,1,33,846,142,650 California Street,steel,San Francisco,1683,US,163,-122.4054413,37.79288864,12775
1976,1,33,846,142,Qwest Plaza,steel,Seattle,1680,US,163,-122.3343811,47.61328125,9680
2007,1,41,849,141.9600067,Allure Las Vegas Tower I,concrete,Las Vegas,1610,US,163,-115.1590118,36.14406967,9365
1931,1,34,850,141.7299957,National Newark Building,steel,Newark,1570,US,163,-74.1709671,40.73667145,9215
2004,1,42,851,141.5599976,The Marc,concrete,New York City,1641,US,163,-73.98415375,40.76433182,9896
1991,1,27,852,141.3999939,Franklin County Courthouse,steel,Columbus,1545,US,163,-83.00018311,39.9538002,12627
1925,1,34,853,141.1199951,Tribune Tower,steel,Chicago,1539,US,163,-87.62364197,41.89038849,9017
1989,1,47,854,141.0700073,200 North Dearborn Apartments,concrete,Chicago,1539,US,163,-87.62985229,41.88605118,9869
1929,1,45,855,141.0200043,Randolph Tower,steel,Chicago,1539,US,163,-87.63368225,41.8846817,9852
2002,1,45,856,140.9199982,Victory Apartments,concrete,New York City,1641,US,163,-73.99626923,40.75931931,9982
1914,2,38,857,140.8200073,Smith Tower,steel,Seattle,1680,US,163,-122.3317719,47.60195923,9676
1927,1,35,858,140.8200073,Montague-Court Building,steel,New York City,1641,US,163,-73.99088287,40.69361877,9986
1985,1,49,859,140.6000061,Presidential Towers I,concrete,Chicago,1539,US,163,-87.64163208,41.88164902,9096
1985,1,49,859,140.6000061,Presidential Towers II,concrete,Chicago,1539,US,163,-87.6423111,41.8813591,9097
1985,1,49,859,140.6000061,Presidential Towers III,concrete,Chicago,1539,US,163,-87.64318848,41.88098907,9098
1985,1,49,859,140.6000061,Presidential Towers IV,concrete,Chicago,1539,US,163,-87.64373016,41.88071823,9099
1931,2,42,863,140.5099945,Jumeirah Essex House,steel,New York City,1641,US,163,-73.97847748,40.76625824,9983
2008,1,45,864,140.5,Trump Towers I,concrete,Sunny Isles Beach,1686,US,163,-80.1217804,25.92449951,15275
2008,1,45,864,140.5,Trump Towers II,concrete,Sunny Isles Beach,1686,US,163,-80.12181854,25.92362976,15276
2008,1,45,864,140.5,Trump Towers III,concrete,Sunny Isles Beach,1686,US,163,-80.12181854,25.9228096,15277
2004,1,32,867,140.5,480 Washington Boulevard,steel,Jersey City,1605,US,163,-74.03484344,40.72486877,12760
1986,1,49,868,140.4900055,The New York,concrete,Chicago,1539,US,163,-87.64615631,41.94974136,9870
2005,1,44,869,140.2100067,One Miami East Tower,concrete,Miami,1632,US,163,-80.18521118,25.77173042,4301
1995,1,34,870,140.2100067,100 North Main Street,steel,Winston-Salem,1601,US,163,-80.24395752,36.0954895,9790
2009,1,34,870,140.2100067,Element,concrete,Tampa,1702,US,163,-82.45980072,27.95085907,10299
1932,1,34,870,140.2100067,Louisiana State Capitol,steel,Baton Rouge,1528,US,163,-91.18733978,30.45693016,9481
1988,1,32,873,140.1999969,The Tower,concrete,Burbank,1531,US,163,-118.3426208,34.15295029,12741
1975,1,36,875,140.1100006,Ruan Center,steel,Des Moines,1557,US,163,-93.62602234,41.58732986,9484
2010,1,43,877,139.6999969,8 Stone Street,concrete,New York City,1641,US,163,-74.01229095,40.70391846,9594
2006,2,40,878,139.6000061,Palms Fantasy Tower,concrete,Las Vegas,1610,US,163,-115.1942978,36.11392975,10647
2003,1,39,879,139.6000061,The Residences at Grand Plaza,concrete,Chicago,1539,US,163,-87.62927246,41.89221954,9943
1972,1,36,880,139.6000061,Park Tower,steel,Tampa,1702,US,163,-82.45941162,27.94775009,10300
2008,1,41,881,139.5,600 Fairbanks Court,concrete,Chicago,1539,US,163,-87.62052917,41.89281082,9087
2014,1,42,882,139.3000031,66 Rockwell Place,concrete,New York City,1641,US,163,-73.98010254,40.68817139,11371
1989,1,43,883,139.2899933,Swissotel Chicago,concrete,Chicago,1539,US,163,-87.61934662,41.88735962,4362
2008,2,39,884,139.2899933,The Water Club at Borgata,concrete,Atlantic City,1501,US,163,-74.43357849,39.37884903,10265
1965,1,35,885,139.2899933,Equitable Building,steel,Chicago,1539,US,163,-87.62288666,41.88959122,9357
1981,1,36,886,139,One Union Square,steel,Seattle,1680,US,163,-122.3320389,47.60977936,9677
1930,2,36,886,139,Trump Parc Condominiums,steel,New York City,1641,US,163,-73.9770813,40.76541901,9991
2011,2,31,888,139,Atlantic Wharf,composite,Boston,1524,US,163,-71.0524826,42.35335922,9003
2007,1,47,889,138.8399963,Kingsbury Plaza,concrete,Chicago,1539,US,163,-87.64034271,41.89115143,9940
2011,1,47,890,138.6999969,The Monaco North Tower,concrete,Jersey City,1605,US,163,-74.03658295,40.72422028,12213
2011,1,47,890,138.6999969,The Monaco South Tower,concrete,Jersey City,1605,US,163,-74.03694153,40.72404861,12214
2009,2,39,893,138.6900024,Olive 8,concrete,Seattle,1680,US,163,-122.3341217,47.61373901,9678
2005,1,36,894,138.6799927,The Pinnacle Marina Tower,concrete,San Diego,1677,US,163,-117.1652832,32.71107864,9923
1927,1,31,895,138.6799927,Paramount Building,steel,New York City,1641,US,163,-73.9864502,40.75708008,9879
1987,1,33,896,138.5200043,Accenture Tower,concrete,Minneapolis,1627,US,163,-93.26756287,44.97415924,9466
2005,1,45,897,138.4299927,400 North LaSalle,concrete,Chicago,1539,US,163,-87.63304901,41.88972092,9941
1969,1,34,898,138.3999939,Equitable Life Building,steel,Los Angeles,1611,US,163,-118.2984695,34.06229019,4373
2010,1,42,899,138.3800049,Trump SoHo Hotel Condominium,concrete,New York City,1641,US,163,-74.00554657,40.72541046,9137
1980,1,34,900,138.3800049,Eleven-Eleven Third Avenue,steel,Seattle,1680,US,163,-122.3353806,47.60659027,9679
1928,1,27,901,138.3800049,City Hall,steel,Los Angeles,1611,US,163,-118.2426376,34.05368042,4376
1931,2,35,902,138.3000031,909 Walnut,steel,Kansas City,1633,US,163,-94.58152771,39.10322952,12761
2003,1,34,903,138.1999969,717 Texas Avenue,concrete,Houston,1593,US,163,-95.36421204,29.76151085,4388
2003,1,29,904,138.1300049,ABN AMRO Plaza,composite,Chicago,1539,US,163,-87.64167786,41.88253021,9942
2007,1,45,905,138.0800018,Turnberry Towers - East Tower,concrete,Las Vegas,1610,US,163,-115.1521225,36.14099121,10651
2008,1,45,905,138.0800018,Turnberry Towers - West Tower,concrete,Las Vegas,1610,US,163,-115.1537018,36.14093018,10650
2008,1,41,907,138.0800018,600 North Lake Shore Drive - North Tower,concrete,Chicago,1539,US,163,-87.61502075,41.89329147,8976
1986,1,34,908,138.0800018,53rd at Third,steel,New York City,1641,US,163,-73.96891022,40.75793839,9138
2005,1,28,909,138,Spire,concrete,Atlanta,1509,US,163,-84.3848877,33.77817154,4392
2010,1,31,911,137.8699951,510 Madison,steel,New York City,1641,US,163,-73.97480774,40.75971985,9213
1965,1,32,912,137.8000031,AT&T Center,steel,Los Angeles,1611,US,163,-118.2617569,34.03953934,4399
2004,1,42,913,137.7700043,Las Olas River House I,concrete,Fort Lauderdale,1574,US,163,-80.14186859,26.11808014,10288
1927,1,37,914,137.7700043,Roanoke Building,steel,Chicago,1539,US,163,-87.6318512,41.88174057,9944
2013,1,34,915,137.7700043,The Dylan,concrete,New York City,1641,US,163,-73.98538971,40.74674988,14431
1970,1,31,916,137.7700043,William R. Snodgrass Tennessee Tower,concrete,Nashville,1640,US,163,-86.78504181,36.1639595,11560
1990,1,30,917,137.7700043,High Street Tower,steel,Boston,1524,US,163,-71.0533371,42.35509109,9800
1957,1,38,918,137.4700012,1065 Avenue of the Americas,steel,New York City,1641,US,163,-73.98542786,40.75395966,9995
2004,1,38,918,137.4700012,Buckhead Grand,concrete,Atlanta,1509,US,163,-84.37069702,33.8487587,4401
1950,1,31,920,137.4700012,Metropolitan Life North Building,steel,New York City,1641,US,163,-73.98648834,40.74150085,9996
2015,1,29,921,137.4100037,7 Bryant Park,composite,New York City,1641,US,163,-73.98554993,40.75341034,12767
2002,1,38,922,137.3899994,Riverbend Condominiums,concrete,Chicago,1539,US,163,-87.63961029,41.88745117,9945
2005,1,47,926,137.1600037,The Shoreham,concrete,Chicago,1539,US,163,-87.61666107,41.88673019,9356
1987,1,44,927,137.1600037,Eugenie Terrace on the Park,concrete,Chicago,1539,US,163,-87.6339035,41.91374969,9946
2008,1,43,928,137.1600037,Bellevue Towers Two,concrete,Bellevue,1532,US,163,-122.1982117,47.61450958,10068
2005,2,42,929,137.1600037,One Lincoln Tower,composite,Bellevue,1532,US,163,-122.2006378,47.61582947,10070
2006,1,41,930,137.1600037,Tower 31,concrete,New York City,1641,US,163,-73.98677826,40.74702072,10021
2009,1,36,931,137.1600037,47 East 34th Street,concrete,New York City,1641,US,163,-73.98213959,40.74771881,10022
1971,1,35,932,137.1600037,Gateway Center III,composite,Chicago,1539,US,163,-87.63902283,41.87863922,9947
1974,1,32,933,137.1600037,100 Summer Street,steel,Boston,1524,US,163,-71.05734253,42.35388184,9802
2000,1,32,933,137.1600037,Three Wells Fargo Center,concrete,Charlotte,1544,US,163,-80.84651947,35.22463989,10607
1983,1,31,935,137.1600037,One Cleveland Center,steel,Cleveland,1543,US,163,-81.68923187,41.5037384,9843
1982,1,47,937,137,Westin Seattle North Tower,steel,Seattle,1680,US,163,-122.3386612,47.61381149,9681
2010,1,36,938,137,Veer Towers East,composite,Las Vegas,1610,US,163,-115.1744995,36.10731125,9231
2010,1,36,938,137,Veer Towers West,composite,Las Vegas,1610,US,163,-115.1751328,36.1074295,9232
2013,1,44,940,136.9600067,Hubbard Place,concrete,Chicago,1539,US,163,-87.63844299,41.89038086,13870
2005,1,45,941,136.8600006,One Miami West Tower,concrete,Miami,1632,US,163,-80.1860733,25.77149963,4410
2010,1,42,942,136.8600006,200 Squared,concrete,Chicago,1539,US,163,-87.63426208,41.88600922,9936
2001,2,38,943,136.8600006,Millennium Point,concrete,New York City,1641,US,163,-74.01747894,40.70560074,10025
2015,1,34,944,136.8000031,Chateau Beach Residences,concrete,Sunny Isles Beach,1686,US,163,-80.12068176,25.9379406,21024
1930,1,35,945,136.6000061,Eleven80,steel,Newark,1570,US,163,-74.16998291,40.73712921,12766
1927,1,37,946,136.5500031,50 Broadway,steel,New York City,1641,US,163,-74.01255035,40.70629883,10144
1916,1,33,947,136.5500031,Adams Express Building,steel,New York City,1641,US,163,-74.0128479,40.70724869,10145
1929,1,32,948,136.5500031,W Minneapolis - The Foshay,steel,Minneapolis,1627,US,163,-93.27159119,44.97447968,9461
1970,1,30,949,136.3000031,1250 Broadway,steel,New York City,1641,US,163,-73.98793793,40.74771118,10139
2006,1,42,950,136.25,La Perla Ocean Residences,concrete,Sunny Isles Beach,1686,US,163,-80.12139893,25.93018913,10336
2003,1,41,951,136.25,Ivy Tower,concrete,New York City,1641,US,163,-73.99156952,40.75830078,10143
2009,2,33,952,136.25,Omni Fort Worth Hotel,concrete,Fort Worth,1579,US,163,-97.32848358,32.74818039,4428
2012,1,22,953,136.1900024,Ann & Robert H. Lurie Children's Hospital of Chicago,composite,Chicago,1539,US,163,-87.62178802,41.89625931,9950
2007,1,36,954,136,University Club Tower,concrete,Milwaukee,1634,US,163,-87.8996582,43.04222107,9273
1931,1,37,955,135.9400024,Greenwich Club Residences,steel,New York City,1641,US,163,-74.01418304,40.70779037,10473
2003,1,34,956,135.9400024,Manchester Grand Hyatt Seaport,steel,San Diego,1677,US,163,-117.1688232,32.71046829,9925
1971,1,36,958,135.6399994,300 South Wacker,concrete,Chicago,1539,US,163,-87.63716888,41.87763977,9949
1931,1,35,959,135.6399994,1400 Broadway,steel,New York City,1641,US,163,-73.98674774,40.75294876,11571
1930,1,33,960,135.6000061,120 Wall Street,steel,New York City,1641,US,163,-74.00598907,40.70475006,11818
1928,1,30,961,135.4700012,Fisher Building,steel,Detroit,1559,US,163,-83.07704163,42.36931992,10579
2015,1,39,962,135.3300018,Premier on Pine,concrete,Seattle,1680,US,163,-122.3321762,47.61317062,14556
2002,1,39,962,135.3300018,The Westin Diplomat Resort,concrete,Hollywood,1596,US,163,-80.11788177,25.99168968,10328
2009,1,40,965,135.0299988,Trump Hollywood,concrete,Hollywood,1596,US,163,-80.1173172,25.99614906,10330
2001,1,38,966,135.0299988,Bridge Tower Place,concrete,New York City,1641,US,163,-73.96085358,40.76042938,10477
1949,1,36,967,135.0299988,100 Park Avenue,steel,New York City,1641,US,163,-73.97875214,40.75136185,10479
1968,1,30,968,135.0299988,Xerox Tower,steel,Rochester,1674,US,163,-77.60449982,43.15451813,9773
1986,1,46,969,135,Jackson Tower,concrete,St. Paul,1694,US,163,-93.08985901,44.9487915,10656
2010,1,39,970,135,Element New York Times Square West,concrete,New York City,1641,US,163,-73.99182129,40.75585175,9595
1931,1,38,971,135,Daily Commerce Building,steel,New York City,1641,US,163,-73.97377777,40.75244141,10478
1937,1,30,972,135,City Hall,steel,Kansas City,1633,US,163,-94.57782745,39.10058975,12762
2014,1,42,973,134.8999939,Optima Chicago Center,concrete,Chicago,1539,US,163,-87.62232208,41.89120102,13529
1991,1,45,974,134.8800049,Lucerne Apartments,concrete,New York City,1641,US,163,-73.95320892,40.7722702,11586
1928,2,37,975,134.7200012,Harriman Building,steel,New York City,1641,US,163,-74.0134201,40.70632172,9989
1982,1,27,976,134.7200012,One Summit Square,concrete,Fort Wayne,1578,US,163,-85.13886261,41.07762146,9485
1988,1,30,977,134.4199982,SunTrust Center,concrete,Orlando,1650,US,163,-81.37966919,28.53998947,10294
2006,1,36,978,134.1199951,Hartford 21,steel,Hartford,1591,US,163,-72.67606354,41.76744843,9510
2005,1,43,979,134.1100006,The Beach Club Tower 1,concrete,Hallandale Beach,1588,US,163,-80.11882019,25.98427963,10332
2007,1,43,979,134.1100006,The Beach Club Tower 3,concrete,Hallandale Beach,1588,US,163,-80.11871338,25.9856205,10333
2007,1,40,981,134.1100006,Met 1,concrete,Miami,1632,US,163,-80.18749237,25.77140999,4482
2008,1,38,983,134.1100006,Fifteen Twenty-One Second Avenue,concrete,Seattle,1680,US,163,-122.3398285,47.60972977,9683
2015,1,39,988,134.1000061,Cirrus,concrete,Seattle,1680,US,163,-122.3374023,47.616539,17227
1931,1,33,991,134.1000061,City Place,steel,Oklahoma City,1645,US,163,-97.51603699,35.4690094,12665
2001,2,33,991,134.1000061,The Olivia,composite,New York City,1641,US,163,-73.99449158,40.75214005,3857
2015,1,41,993,134,Insignia South Tower,concrete,Seattle,1680,US,163,-122.3429337,47.61656952,23480
1979,1,32,995,134,One Canal Place,steel,New Orleans,1636,US,163,-90.06548309,29.95129013,10589
1992,1,43,996,133.8099976,The Mondrian,concrete,New York City,1641,US,163,-73.9671402,40.75735092,10480
1961,1,32,997,133.8099976,One Park Tower,steel,Atlanta,1509,US,163,-84.38970184,33.75485992,4489
2006,1,32,998,133.8000031,W Dallas Victory Hotel & Residences,concrete,Dallas,1554,US,163,-96.80908966,32.78807831,14853
1922,1,27,999,133.5099945,Wrigley Building,steel,Chicago,1539,US,163,-87.62477112,41.88946915,9018
2001,1,40,1000,133.5,Park Laurel Condominiums,concrete,New York City,1641,US,163,-73.9808197,40.77116013,10483
1929,1,38,1001,133.5,Willoughby Tower,steel,Chicago,1539,US,163,-87.62477875,41.88190079,9854
1929,1,35,1002,133.5,The Crest,steel,New York City,1641,US,163,-74.00865173,40.70566177,10484
1974,1,34,1003,133.5,Borden Building,steel,Columbus,1545,US,163,-82.99555206,39.96316147,12625
1927,1,33,1004,133.5,Empire Trust Company Building,steel,New York City,1641,US,163,-73.9786911,40.75703812,10485
1969,1,32,1005,133.5,One California,steel,San Francisco,1683,US,163,-122.3973389,37.79330063,12783
1970,1,31,1006,133.5,1010 Common,concrete,New Orleans,1636,US,163,-90.07373047,29.95371056,10590
1927,1,40,1007,133.1999969,Cadillac Tower,steel,Detroit,1559,US,163,-83.04482269,42.33190918,10580
2006,1,36,1008,133.1999969,The Peninsula,concrete,Jacksonville,1604,US,163,-81.65470886,30.31912041,10323
2006,2,43,1009,133.1499939,Residence Inn New York Manhattan/Times Square,concrete,New York City,1641,US,163,-73.98593903,40.75281143,10486
2005,1,29,1010,133.1000061,Cira Centre,steel,Philadelphia,1657,US,163,-75.18260193,39.9573288,9902
1929,1,32,1011,133.0800018,David Stott Building,steel,Detroit,1559,US,163,-83.0485611,42.33240891,10581
2009,1,42,1012,132.8999939,Crystal Point,concrete,Jersey City,1605,US,163,-74.0319519,40.72156143,12759
1989,1,39,1013,132.8999939,San Francisco Marriott,steel,San Francisco,1683,US,163,-122.4046021,37.78551102,12790
1958,1,34,1015,132.8899994,750 3rd Avenue,steel,New York City,1641,US,163,-73.97271729,40.75379944,10487
1974,1,26,1016,132.8899994,Annenberg Pavillion,steel,New York City,1641,US,163,-73.95311737,40.78971863,10488
1925,2,26,1017,132.6999969,140 New Montgomery Street,steel,San Francisco,1683,US,163,-122.3999329,37.78668976,12796
1927,1,32,1018,132.6000061,Russ Building,steel,San Francisco,1683,US,163,-122.4029922,37.79146957,12795
1998,1,40,1019,132.5899963,Archstone Midtown West,concrete,New York City,1641,US,163,-73.98590088,40.76190948,10489
2007,1,40,1019,132.5899963,Trump Plaza,concrete,New Rochelle,1714,US,163,-73.78163147,40.91242981,9601
1931,1,34,1021,132.5899963,745 5th Avenue,steel,New York City,1641,US,163,-73.97315979,40.76324844,9829
1972,1,37,1022,132.5800018,180 North LaSalle,concrete,Chicago,1539,US,163,-87.63292694,41.88534164,9958
2001,1,41,1023,132.3000031,The Palisades,concrete,Fort Lee,1576,US,163,-73.96587372,40.84803009,12752
2009,1,43,1024,132.2899933,Spring,concrete,Austin,1510,US,163,-97.75404358,30.26885033,10361
2005,2,36,1025,132.25,Fontainebleau Tower Suites,concrete,Miami Beach,1622,US,163,-80.12291718,25.81653976,20957
2010,1,39,1026,132.0800018,Silver Tower,concrete,Chicago,1539,US,163,-87.63601685,41.89207077,9959
1971,1,31,1027,132,5900 Wilshire,steel,Los Angeles,1611,US,163,-118.3585663,34.06216049,4511
1989,1,28,1028,132,225 West Wacker,concrete,Chicago,1539,US,163,-87.63510895,41.88637161,9842
1986,1,40,1029,131.9799957,The Vanderbilt,concrete,New York City,1641,US,163,-73.97367096,40.74932098,11585
1928,1,35,1030,131.9799957,ITT Building,steel,New York City,1641,US,163,-74.01113892,40.70466995,11587
2007,1,35,1030,131.9799957,Loft 2,concrete,Miami,1632,US,163,-80.18982697,25.77598953,4512
1999,1,32,1032,131.7400055,Chrysler Building East,steel,New York City,1641,US,163,-73.97453308,40.75125885,12589
1926,1,36,1033,131.6799927,535 5th Avenue,steel,New York City,1641,US,163,-73.97936249,40.75476074,11654
1917,1,30,1035,131.6799927,Bush Tower,steel,New York City,1641,US,163,-73.98552704,40.75510025,11583
1967,1,28,1036,131.6799927,Riverplace Tower,precast,Jacksonville,1604,US,163,-81.6566925,30.31933022,10324
1986,1,42,1037,131.6699982,The Savoy Condominiums,concrete,New York City,1641,US,163,-73.96546936,40.76242065,12588
2015,1,39,1038,131.6699982,218 West 35th Street,concrete,New York City,1641,US,163,-73.99105072,40.75180054,15749
2014,1,39,1038,131.6699982,BKLYN Air,concrete,New York City,1641,US,163,-73.98288727,40.69504166,15746
2007,2,42,1040,131.4499969,Borgata Hotel & Casino,concrete,Atlantic City,1501,US,163,-74.43515015,39.377491,10266
1967,1,43,1042,131.3699951,1130 South Michigan,concrete,Chicago,1539,US,163,-87.62461853,41.86849976,9960
2008,1,42,1044,131.0700073,Bellevue Towers One,concrete,Bellevue,1532,US,163,-122.1976929,47.61410904,10069
1965,1,37,1045,131.0700073,100 North Main Building,concrete,Memphis,1626,US,163,-90.05095673,35.14770126,9504
2002,1,23,1046,131.0700073,Carl B. Stokes Federal Courthouse,steel,Cleveland,1543,US,163,-81.69750214,41.49644089,9845
2001,1,32,1048,131.0599976,Baltimore Marriott Waterfront Hotel,concrete,Baltimore,1514,US,163,-76.60286713,39.28342819,10605
2007,2,28,1049,131.0399933,Memorial Hermann Medical Plaza,concrete,Houston,1593,US,163,-95.39682007,29.71537018,4534
1971,1,46,1050,131,McClurg Court Center A,concrete,Chicago,1539,US,163,-87.61788177,41.89297104,9961
1971,1,46,1050,131,McClurg Court Center B,concrete,Chicago,1539,US,163,-87.61847687,41.8931694,9962
2007,1,37,1052,131,Turnberry Ocean Colony North Tower,concrete,Sunny Isles Beach,1686,US,163,-80.12159729,25.92633057,21025
2008,1,37,1052,131,Turnberry Ocean Colony South Tower,concrete,Sunny Isles Beach,1686,US,163,-80.12159729,25.92542076,21026
1968,1,32,1054,131,1700 Market Street,concrete,Philadelphia,1657,US,163,-75.16906738,39.95275116,9899
1990,2,42,1055,130.7599945,Trump Taj Mahal Casino Hotel,composite,Atlantic City,1501,US,163,-74.41950226,39.36024094,10267
1927,1,38,1056,130.7599945,Fred F. French Building,steel,New York City,1641,US,163,-73.97886658,40.75532913,9990
1930,1,28,1057,130.7599945,AT&T Building,steel,New York City,1641,US,163,-74.00473022,40.71989059,11563
2013,1,41,1058,130.75,Linc LIC,concrete,New York City,1641,US,163,-73.94280243,40.74882889,14430
1996,1,30,1059,130.75,First Hawaiian Center,steel,Honolulu,1592,US,163,-157.861557,21.30787086,9322
1975,1,48,1060,130.5599976,1555 North Astor,concrete,Chicago,1539,US,163,-87.62731934,41.91101837,9963
2006,1,41,1061,130.5,One Carnegie Hill,concrete,New York City,1641,US,163,-73.94819641,40.78517914,16305
1929,1,37,1062,130.4600067,712 Main Street,steel,Houston,1593,US,163,-95.36379242,29.75896072,4538
2008,1,32,1063,130.4600067,101 Warren Street,concrete,New York City,1641,US,163,-74.01261139,40.7159996,8969
1927,1,26,1064,130.4600067,Bank of America Building,steel,Providence,1664,US,163,-71.41111755,41.82447815,9608
1977,1,46,1065,130.4499969,Manhattan Plaza Apartments I,concrete,New York City,1641,US,163,-73.99291992,40.75899887,11381
1977,1,46,1065,130.4499969,Manhattan Plaza Apartments II,concrete,New York City,1641,US,163,-73.99478912,40.75986862,11382
1975,1,44,1067,130.4499969,Harlem River Park Tower I,concrete,New York City,1641,US,163,-73.92339325,40.85129166,11595
1975,1,44,1067,130.4499969,Harlem River Park Tower II,concrete,New York City,1641,US,163,-73.92247772,40.85232925,11596
2010,1,31,1069,130.3500061,Hyatt Regency Orlando Expansion Tower,concrete,Orlando,1650,US,163,-81.46862793,28.42798042,10295
2009,1,37,1070,130.25,Toren,steel,New York City,1641,US,163,-73.98262024,40.69327164,9229
2003,1,40,1071,130.1999969,Marbella Apartments,concrete,Jersey City,1605,US,163,-74.03688049,40.72275162,12757
1970,1,38,1072,130.1499939,Finland House,concrete,New York City,1641,US,163,-73.97377014,40.76094818,11594
1980,1,45,1073,130,Sheraton Kansas City Hotel at Crown Center,steel,Kansas City,1633,US,163,-94.57956696,39.08522034,4584
2014,1,36,1074,130,Evo at Cira Centre South,concrete,Philadelphia,1657,US,163,-75.18334198,39.95309067,17055
1990,1,30,1075,130,AMA Building,steel,Chicago,1539,US,163,-87.62719727,41.89139175,9965
2007,1,42,1077,129.8500061,500 Brickell East Tower,concrete,Miami,1632,US,163,-80.19059753,25.76828957,4575
2007,1,42,1077,129.8500061,500 Brickell West Tower,concrete,Miami,1632,US,163,-80.19119263,25.76840973,4576
1972,1,42,1077,129.8500061,Eugenie Square,concrete,Chicago,1539,US,163,-87.63356781,41.91257858,9966
1983,1,40,1080,129.8500061,The Spires,concrete,Houston,1593,US,163,-95.38851929,29.70698929,4578
1931,2,38,1081,129.8500061,The Carlyle,steel,New York City,1641,US,163,-73.96315002,40.77436829,11598
2007,1,35,1082,129.8500061,The Vue at Lake Eola,concrete,Orlando,1650,US,163,-81.37610626,28.54532051,10296
1988,1,28,1083,129.8500061,Milwaukee Center,concrete,Milwaukee,1634,US,163,-87.91179657,43.04161835,9274
2015,1,43,1084,129.8000031,Waihonua at Kewalo,concrete,Honolulu,1592,US,163,-157.8483124,21.29328918,16359
2001,1,40,1085,129.8000031,Ocean Two Condominiums I,concrete,Sunny Isles Beach,1686,US,163,-80.11975098,25.95298004,20968
2001,1,40,1085,129.8000031,Ocean Two Condominiums II,concrete,Sunny Isles Beach,1686,US,163,-80.11975098,25.95362091,20970
1987,1,37,1087,129.8000031,The Promenade,concrete,New York City,1641,US,163,-73.94998169,40.76811981,12591
1987,1,37,1088,129.7700043,Fairmont Hotel,concrete,Chicago,1539,US,163,-87.62093353,41.88600922,9952
2008,1,41,1089,129.5399933,The Rushmore,concrete,New York City,1641,US,163,-73.99019623,40.77518845,11599
2007,1,36,1090,129.5399933,Avenue,concrete,Charlotte,1544,US,163,-80.84230804,35.22909927,10610
2005,1,36,1090,129.5399933,Blue on the Bay,concrete,Miami,1632,US,163,-80.18666077,25.81111908,4587
1986,1,29,1092,129.5399933,1835 Market Street,steel,Philadelphia,1657,US,163,-75.17112732,39.95367813,9906
1975,1,42,1093,129.5,Yorkville Towers,concrete,New York City,1641,US,163,-73.95075989,40.78221893,12592
1988,1,24,1095,129.5,505 Montgomery,steel,San Francisco,1683,US,163,-122.4034119,37.79397964,20781
2006,1,40,1096,129.4100037,Sky55,concrete,Chicago,1539,US,163,-87.6235733,41.86600113,9967
2008,2,34,1098,129.3099976,Grand Hyatt San Antonio,concrete,San Antonio,1678,US,163,-98.48388672,29.42189026,9569
1992,1,41,1100,129.2400055,Harbor Club East,concrete,San Diego,1677,US,163,-117.1623077,32.70883942,9926
1992,1,41,1100,129.2400055,Harbor Club West,concrete,San Diego,1677,US,163,-117.1629333,32.70903015,9927
1947,1,33,1102,129.2400055,Time Warner Building,steel,New York City,1641,US,163,-73.97775269,40.75997925,11711
1910,1,31,1103,129.2400055,Whitehall Building Annex,steel,New York City,1641,US,163,-74.01608276,40.7055397,11641
1972,1,30,1104,129.2400055,One PNC Plaza,steel,Pittsburgh,1661,US,163,-80.00041962,40.44129181,9835
2008,3,25,1105,129.2400055,Mortimer B. Zuckerman Research Center,steel,New York City,1641,US,163,-73.9567337,40.76514053,4592
2007,1,40,1106,129.0500031,1800 Club,concrete,Miami,1632,US,163,-80.18692017,25.79397011,4594
1986,1,39,1107,129,Rio Condominium & Spa,concrete,New York City,1641,US,163,-73.96148682,40.76398849,15936
2004,3,36,1108,129,VUE at Brickell,concrete,Miami,1632,US,163,-80.19332886,25.76095963,16869
1969,1,32,1109,129,Fifth Third Center,steel,Cincinnati,1550,US,163,-84.51177216,39.10169983,10534
2007,1,42,1110,128.9299927,Brickell on the River South Tower,concrete,Miami,1632,US,163,-80.19172668,25.76910019,4593
2004,1,42,1110,128.9299927,ICON at South Beach,concrete,Miami Beach,1622,US,163,-80.14128876,25.7737999,10306
2001,2,42,1110,128.9299927,Palms Casino Hotel,concrete,Las Vegas,1610,US,163,-115.1939468,36.11487961,10653
2015,1,37,1113,128.8999939,The Bowie,concrete,Austin,1510,US,163,-97.75299072,30.26931953,14952
1997,2,42,1114,128.8600006,Rio Masquerade Tower,concrete,Las Vegas,1610,US,163,-115.1866226,36.11618042,10654
1922,1,29,1115,128.6300049,195 Broadway,steel,New York City,1641,US,163,-74.00969696,40.71097183,11643
1998,1,26,1116,128.6300049,Wells Fargo Center,steel,Salt Lake City,1687,US,163,-111.8906403,40.76337814,9550
2004,1,36,1117,128.6199951,Archstone Chelsea,concrete,New York City,1641,US,163,-73.99050903,40.74557114,11647
1998,1,40,1118,128.5700073,180 Riverside Boulevard at Trump Place,concrete,New York City,1641,US,163,-73.9881897,40.77848053,11644
2008,1,46,1119,128.5299988,Moana Pacific East Tower,concrete,Honolulu,1592,US,163,-157.846283,21.29622078,9182
2008,1,46,1119,128.5299988,Moana Pacific West Tower,concrete,Honolulu,1592,US,163,-157.847168,21.2958107,9183
1971,1,39,1121,128.3200073,2020 North Lincoln Park West,concrete,Chicago,1539,US,163,-87.63696289,41.91881943,9968
1932,1,26,1122,128.3000031,CenturyLink Building,steel,Minneapolis,1627,US,163,-93.26670074,44.97745132,12013
